{"type":"FeatureCollection","features":[{"type":"Feature","properties":{"id":1,"address":"Westerheide","location_desc":"vor Schule","recycling_type":"glass","object_type":"container"},"geometry":{"type":"Point","coordinates":[7.676,52.0285]}},{"type":"Feature","properties":{"id":2,"address":"Horstmarer Landweg","location_desc":"Ecke Philippistraße","recycling_type":"glass","object_type":"container"},"geometry":{"type":"Point","coordinates":[7.6025,51.9701]}},{"type":"Feature","properties":{"id":3,"address":"Brüningheide","location_desc":"bei Hst. Meinertzstraße","recycling_type":"glass","object_type":"container"},"geometry":{"type":"Point","coordinates":[7.5951,52.0004]}},{"type":"Feature","properties":{"id":24,"address":"Schmeddingstraße","location_desc":"gegenüber Hst. Schmeddingstraße A","recycling_type":"glass","object_type":"container"},"geometry":{"type":"Point","coordinates":[7.5898,51.9608]}},{"type":"Feature","properties":{"id":29,"address":"Helene-Weigel-Weg","location_desc":"hinter Parkplatz EKZ","recycling_type":"glass","object_type":"container"},"geometry":{"type":"Point","coordinates":[7.6239,51.9019]}},{"type":"Feature","properties":{"id":60,"address":"Westhoffstraße","location_desc":"vor REWE","recycling_type":"glass","object_type":"container"},"geometry":{"type":"Point","coordinates":[7.5991,51.9929]}},{"type":"Feature","properties":{"id":63,"address":"Von-Esmarch-Straße","location_desc":"gegenüber Hs Nr. 159","recycling_type":"glass","object_type":"container"},"geometry":{"type":"Point","coordinates":[7.582,51.9664]}},{"type":"Feature","properties":{"id":111,"address":"Scharnhorststraße","location_desc":"Ecke Hoppendamm","recycling_type":"glass","object_type":"container"},"geometry":{"type":"Point","coordinates":[7.6143,51.9532]}},{"type":"Feature","properties":{"id":113,"address":"Marktallee","location_desc":"Zufahrt zum Bahnhof","recycling_type":"glass","object_type":"container"},"geometry":{"type":"Point","coordinates":[7.6516,51.9046]}},{"type":"Feature","properties":{"id":115,"address":"Münzstraße","location_desc":"Kalkmarkt (Parkplatz)","recycling_type":"glass","object_type":"container"},"geometry":{"type":"Point","coordinates":[7.6177,51.9667]}},{"type":"Feature","properties":{"id":127,"address":"An der Meerwiese","location_desc":"bei Hs Nr. 17, Parkplatz Viva West","recycling_type":"glass","object_type":"container"},"geometry":{"type":"Point","coordinates":[7.6492,51.9877]}},{"type":"Feature","properties":{"id":136,"address":"August-Schepers-Straße","location_desc":"vor der Kanalbrücke","recycling_type":"glass","object_type":"container"},"geometry":{"type":"Point","coordinates":[7.6551,51.9539]}},{"type":"Feature","properties":{"id":139,"address":"Zum Guten Hirten","location_desc":"vor der Kanalbrücke","recycling_type":"glass","object_type":"container"},"geometry":{"type":"Point","coordinates":[7.664,51.9628]}},{"type":"Feature","properties":{"id":140,"address":"Dreizehnerstraße","location_desc":"Ecke Grevener Straße","recycling_type":"glass","object_type":"container"},"geometry":{"type":"Point","coordinates":[7.6111,51.9837]}},{"type":"Feature","properties":{"id":142,"address":"Kanalstraße","location_desc":"Einfahrt Schlachthaus","recycling_type":"glass","object_type":"container"},"geometry":{"type":"Point","coordinates":[7.6328,51.9725]}},{"type":"Feature","properties":{"id":145,"address":"Königsberger Straße","location_desc":"Hamannplatz, Einfahrt Parkplatz am EKZ","recycling_type":"glass","object_type":"container"},"geometry":{"type":"Point","coordinates":[7.6469,51.993]}},{"type":"Feature","properties":{"id":203,"address":"Nienberger Straße","location_desc":"Straßenrand Grünfläche","recycling_type":"glass","object_type":"container"},"geometry":{"type":"Point","coordinates":[7.6153,52.0418]}},{"type":"Feature","properties":{"id":204,"address":"Sprakeler Straße","location_desc":"Bahnhof Sprakel1 Altkleidercontainer AWO","recycling_type":"glass","object_type":"container"},"geometry":{"type":"Point","coordinates":[7.6193,52.0421]}},{"type":"Feature","properties":{"id":214,"address":"Schmitthausweg","location_desc":"Ecke Hansellerstraße","recycling_type":"glass","object_type":"container"},"geometry":{"type":"Point","coordinates":[7.5614,52.0224]}},{"type":"Feature","properties":{"id":221,"address":"Feldstiege","location_desc":"Parkplatz Sportzentrum","recycling_type":"glass","object_type":"container"},"geometry":{"type":"Point","coordinates":[7.5496,51.9998]}},{"type":"Feature","properties":{"id":225,"address":"Waltruper Weg","location_desc":"Ecke Von-Schonebeck-RingAltkleider Aktion Friedensdorf","recycling_type":"glass","object_type":"container"},"geometry":{"type":"Point","coordinates":[7.5478,51.994]}},{"type":"Feature","properties":{"id":231,"address":"Hermann-Hesse-Straße","location_desc":"Ecke Hülshoffstraße","recycling_type":"glass","object_type":"container"},"geometry":{"type":"Point","coordinates":[7.5533,51.9956]}},{"type":"Feature","properties":{"id":234,"address":"Plettendorfstraße","location_desc":"Ecke Kurneystraße","recycling_type":"glass","object_type":"container"},"geometry":{"type":"Point","coordinates":[7.5563,51.9968]}},{"type":"Feature","properties":{"id":239,"address":"Am Baumberger Hof","location_desc":"Ecke Hägerstraße","recycling_type":"glass","object_type":"container"},"geometry":{"type":"Point","coordinates":[7.5579,52.0015]}},{"type":"Feature","properties":{"id":244,"address":"Kirmstraße","location_desc":"gegenüber Hs Nr. 23, Parkboxen","recycling_type":"glass","object_type":"container"},"geometry":{"type":"Point","coordinates":[7.5589,51.998]}},{"type":"Feature","properties":{"id":248,"address":"Zur Eckernheide","location_desc":"Parkplatz Sportplatz","recycling_type":"glass","object_type":"container"},"geometry":{"type":"Point","coordinates":[7.6745,52.0259]}},{"type":"Feature","properties":{"id":254,"address":"An den Eichen","location_desc":"Parkstreifen","recycling_type":"glass","object_type":"container"},"geometry":{"type":"Point","coordinates":[7.7159,52.0023]}},{"type":"Feature","properties":{"id":257,"address":"Dorbaumstraße","location_desc":"Parkplatz Getränkemarkt (Nähe Wacholderweg)","recycling_type":"glass","object_type":"container"},"geometry":{"type":"Point","coordinates":[7.7099,52.0014]}},{"type":"Feature","properties":{"id":259,"address":"Lützowstraße","location_desc":"gegenüber Haus Münsterland","recycling_type":"glass","object_type":"container"},"geometry":{"type":"Point","coordinates":[7.7165,51.9991]}},{"type":"Feature","properties":{"id":267,"address":"Kirschgarten","location_desc":"Grünstreifen/Parkplatz Sportplatz","recycling_type":"glass","object_type":"container"},"geometry":{"type":"Point","coordinates":[7.7091,51.9874]}},{"type":"Feature","properties":{"id":268,"address":"Heriburgstraße","location_desc":"Parkplatz Hallenbad1 mal AK CAJ e.V.","recycling_type":"glass","object_type":"container"},"geometry":{"type":"Point","coordinates":[7.7056,51.9896]}},{"type":"Feature","properties":{"id":275,"address":"Hugo-Pottebaum-Platz","location_desc":"Parkplatz","recycling_type":"glass","object_type":"container"},"geometry":{"type":"Point","coordinates":[7.6977,51.9876]}},{"type":"Feature","properties":{"id":279,"address":"Sudmühlenstraße","location_desc":"Ecke Havichhorster Mühle1 mal AK CAJ e.V.","recycling_type":"glass","object_type":"container"},"geometry":{"type":"Point","coordinates":[7.6812,51.9971]}},{"type":"Feature","properties":{"id":283,"address":"An der Kleimannbrücke","location_desc":"vor Hs Nr. 25","recycling_type":"glass","object_type":"container"},"geometry":{"type":"Point","coordinates":[7.6606,51.991]}},{"type":"Feature","properties":{"id":284,"address":"Hobbeltstraße","location_desc":"Nähe Handorfer Straße, Randstreifen","recycling_type":"glass","object_type":"container"},"geometry":{"type":"Point","coordinates":[7.7044,51.9817]}},{"type":"Feature","properties":{"id":292,"address":"Mariendorfer Straße","location_desc":"neben Hst. Mariendorf West (Ri. Dyckburgstraße)","recycling_type":"glass","object_type":"container"},"geometry":{"type":"Point","coordinates":[7.6686,51.9874]}},{"type":"Feature","properties":{"id":304,"address":"Bispinghof","location_desc":"Ecke Universitätsstraße","recycling_type":"glass","object_type":"container"},"geometry":{"type":"Point","coordinates":[7.6203,51.9607]}},{"type":"Feature","properties":{"id":350,"address":"Görlitzer Straße","location_desc":"zwischen Hs Nr. 34-58, gegenüber 45-53","recycling_type":"glass","object_type":"container"},"geometry":{"type":"Point","coordinates":[7.6427,51.9917]}},{"type":"Feature","properties":{"id":356,"address":"Mühlenstraße","location_desc":"Ecke Am Stadtgraben","recycling_type":"glass","object_type":"container"},"geometry":{"type":"Point","coordinates":[7.6198,51.9588]}},{"type":"Feature","properties":{"id":360,"address":"Schneidemühler Straße","location_desc":"Garagenbereich bei Hs Nr.5, Straßenrand","recycling_type":"glass","object_type":"container"},"geometry":{"type":"Point","coordinates":[7.65,51.9937]}},{"type":"Feature","properties":{"id":368,"address":"Südstraße","location_desc":"Ecke Hafenstraße, Parkplatz","recycling_type":"glass","object_type":"container"},"geometry":{"type":"Point","coordinates":[7.6277,51.955]}},{"type":"Feature","properties":{"id":372,"address":"Dachsleite","location_desc":"Ecke Marienburgstraße","recycling_type":"glass","object_type":"container"},"geometry":{"type":"Point","coordinates":[7.6489,51.9975]}},{"type":"Feature","properties":{"id":376,"address":"Nerzweg","location_desc":"zwischen Hs Nr. 26 und Hs Nr. 32","recycling_type":"glass","object_type":"container"},"geometry":{"type":"Point","coordinates":[7.6406,51.9991]}},{"type":"Feature","properties":{"id":378,"address":"Holtmannsweg","location_desc":"gegenüber Eichhornweg","recycling_type":"glass","object_type":"container"},"geometry":{"type":"Point","coordinates":[7.6376,51.9947]}},{"type":"Feature","properties":{"id":384,"address":"Nevinghoff","location_desc":"vor Arbeitsamt","recycling_type":"glass","object_type":"container"},"geometry":{"type":"Point","coordinates":[7.6333,51.9843]}},{"type":"Feature","properties":{"id":405,"address":"Friedrich-Ebert-Straße","location_desc":"vor Finanzamt Außenstadt","recycling_type":"glass","object_type":"container"},"geometry":{"type":"Point","coordinates":[7.6317,51.9505]}},{"type":"Feature","properties":{"id":420,"address":"Schlossplatz","location_desc":"gegenüber Bäckergasse","recycling_type":"glass","object_type":"container"},"geometry":{"type":"Point","coordinates":[7.6177,51.9632]}},{"type":"Feature","properties":{"id":430,"address":"Kolde-Ring","location_desc":"gegenüber LVM","recycling_type":"glass","object_type":"container"},"geometry":{"type":"Point","coordinates":[7.6129,51.9497]}},{"type":"Feature","properties":{"id":439,"address":"Hüfferstraße","location_desc":"? gegenüb. Hs Nr. 50, Möserweg","recycling_type":"glass","object_type":"container"},"geometry":{"type":"Point","coordinates":[7.6057,51.9608]}},{"type":"Feature","properties":{"id":454,"address":"Grevener Straße","location_desc":"am Taxistand","recycling_type":"glass","object_type":"container"},"geometry":{"type":"Point","coordinates":[7.613,51.9953]}},{"type":"Feature","properties":{"id":474,"address":"Rektoratsweg","location_desc":"Ecke Im Moorhock","recycling_type":"glass","object_type":"container"},"geometry":{"type":"Point","coordinates":[7.6079,51.9872]}},{"type":"Feature","properties":{"id":479,"address":"Brüningheide","location_desc":"vor Hs Nr. 111-121","recycling_type":"glass","object_type":"container"},"geometry":{"type":"Point","coordinates":[7.5926,52.0008]}},{"type":"Feature","properties":{"id":482,"address":"Josef-Beckmann-Straße","location_desc":"Ecke Kristiansandstraße","recycling_type":"glass","object_type":"container"},"geometry":{"type":"Point","coordinates":[7.5986,51.9974]}},{"type":"Feature","properties":{"id":483,"address":"Josef-Beckmann-Straße","location_desc":"Ecke Sprinckmannstraße","recycling_type":"glass","object_type":"container"},"geometry":{"type":"Point","coordinates":[7.5971,51.9974]}},{"type":"Feature","properties":{"id":484,"address":"Westhoffstraße","location_desc":"Parkplatz REWE","recycling_type":"glass","object_type":"container"},"geometry":{"type":"Point","coordinates":[7.5992,51.9935]}},{"type":"Feature","properties":{"id":495,"address":"Hoher Heckenweg","location_desc":"gegenüber Hs Nr. 168","recycling_type":"glass","object_type":"container"},"geometry":{"type":"Point","coordinates":[7.6458,51.9824]}},{"type":"Feature","properties":{"id":511,"address":"Schifffahrter Damm","location_desc":"vor Hs Nr. 82","recycling_type":"glass","object_type":"container"},"geometry":{"type":"Point","coordinates":[7.6569,51.9712]}},{"type":"Feature","properties":{"id":519,"address":"Von-Humboldt-Straße","location_desc":"Einfahrt zur Schule, gegenüber Hs Nr. 9","recycling_type":"glass","object_type":"container"},"geometry":{"type":"Point","coordinates":[7.6035,51.9977]}},{"type":"Feature","properties":{"id":522,"address":"Sankt-Josefs-Kirchplatz","location_desc":"Papier vor Post","recycling_type":"glass","object_type":"container"},"geometry":{"type":"Point","coordinates":[7.6254,51.9497]}},{"type":"Feature","properties":{"id":525,"address":"Norbertstraße","location_desc":"Hermannstraßeunterirdisch","recycling_type":"glass","object_type":"container"},"geometry":{"type":"Point","coordinates":[7.6228,51.9535]}},{"type":"Feature","properties":{"id":526,"address":"Geiststraße","location_desc":"schräg gegenüber Goebenstraße","recycling_type":"glass","object_type":"container"},"geometry":{"type":"Point","coordinates":[7.6206,51.9517]}},{"type":"Feature","properties":{"id":528,"address":"Goldstraße","location_desc":"Niedersachsen Ring","recycling_type":"glass","object_type":"container"},"geometry":{"type":"Point","coordinates":[7.6405,51.971]}},{"type":"Feature","properties":{"id":534,"address":"Gartenstraße","location_desc":"Hst. LVA Westfalen","recycling_type":"glass","object_type":"container"},"geometry":{"type":"Point","coordinates":[7.6361,51.9761]}},{"type":"Feature","properties":{"id":541,"address":"Stettiner Straße","location_desc":"vor Hs Nr. 64-66","recycling_type":"glass","object_type":"container"},"geometry":{"type":"Point","coordinates":[7.6466,51.9759]}},{"type":"Feature","properties":{"id":549,"address":"Kerstingskamp","location_desc":"vor Hs Nr. 24","recycling_type":"glass","object_type":"container"},"geometry":{"type":"Point","coordinates":[7.6095,51.9883]}},{"type":"Feature","properties":{"id":551,"address":"Cloppenburgstraße","location_desc":"Ecke Pötterhoek","recycling_type":"glass","object_type":"container"},"geometry":{"type":"Point","coordinates":[7.6537,51.9723]}},{"type":"Feature","properties":{"id":561,"address":"Hittorfstraße","location_desc":"Ecke Einsteinstraße","recycling_type":"glass","object_type":"container"},"geometry":{"type":"Point","coordinates":[7.604,51.9655]}},{"type":"Feature","properties":{"id":564,"address":"Delpstraße","location_desc":"Taxistand, gegenüber Edeka","recycling_type":"glass","object_type":"container"},"geometry":{"type":"Point","coordinates":[7.6076,51.9478]}},{"type":"Feature","properties":{"id":565,"address":"Dunantstraße","location_desc":"Parkplatz Studentenwohnheim","recycling_type":"glass","object_type":"container"},"geometry":{"type":"Point","coordinates":[7.6105,51.9475]}},{"type":"Feature","properties":{"id":566,"address":"Scharnhorststraße","location_desc":"Parkplatz PH","recycling_type":"glass","object_type":"container"},"geometry":{"type":"Point","coordinates":[7.6071,51.9501]}},{"type":"Feature","properties":{"id":585,"address":"Diesterwegstraße","location_desc":"gegenüber Schmüllingstraße","recycling_type":"glass","object_type":"container"},"geometry":{"type":"Point","coordinates":[7.5994,52.0009]}},{"type":"Feature","properties":{"id":587,"address":"Killingstraße","location_desc":"gegenüber Hs Nr. 25","recycling_type":"glass","object_type":"container"},"geometry":{"type":"Point","coordinates":[7.5926,51.9994]}},{"type":"Feature","properties":{"id":588,"address":"Killingstraße","location_desc":"gegenüber Hs Nr. 15","recycling_type":"glass","object_type":"container"},"geometry":{"type":"Point","coordinates":[7.594,51.9993]}},{"type":"Feature","properties":{"id":604,"address":"Sprickmannstraße","location_desc":"gegenüber Hs Nr. 33/35","recycling_type":"glass","object_type":"container"},"geometry":{"type":"Point","coordinates":[7.5941,51.9986]}},{"type":"Feature","properties":{"id":608,"address":"Dyckburgstraße","location_desc":"Ecke Warendorfer Straße","recycling_type":"glass","object_type":"container"},"geometry":{"type":"Point","coordinates":[7.6763,51.9711]}},{"type":"Feature","properties":{"id":620,"address":"Wasserstraße","location_desc":"gegenüber Hs Nr. 35","recycling_type":"glass","object_type":"container"},"geometry":{"type":"Point","coordinates":[7.6308,51.9669]}},{"type":"Feature","properties":{"id":638,"address":"Nordplatz","location_desc":"gegenüber Hs Nr. 1","recycling_type":"glass","object_type":"container"},"geometry":{"type":"Point","coordinates":[7.6234,51.9719]}},{"type":"Feature","properties":{"id":650,"address":"Studtplatz","location_desc":"unterirdisch Ecke Grimmstraße","recycling_type":"glass","object_type":"container"},"geometry":{"type":"Point","coordinates":[7.6182,51.9693]}},{"type":"Feature","properties":{"id":655,"address":"Maximilianstraße","location_desc":"Ecke Zuhornstraße","recycling_type":"glass","object_type":"container"},"geometry":{"type":"Point","coordinates":[7.627,51.9702]}},{"type":"Feature","properties":{"id":658,"address":"Am Kreuztor","location_desc":"Taxistand","recycling_type":"glass","object_type":"container"},"geometry":{"type":"Point","coordinates":[7.6226,51.9682]}},{"type":"Feature","properties":{"id":663,"address":"Wienburgstraße","location_desc":"Ecke Salzmannstraße","recycling_type":"glass","object_type":"container"},"geometry":{"type":"Point","coordinates":[7.6216,51.9774]}},{"type":"Feature","properties":{"id":664,"address":"Meßkamp","location_desc":"Ecke Kinderhauser Straße","recycling_type":"glass","object_type":"container"},"geometry":{"type":"Point","coordinates":[7.6136,51.9804]}},{"type":"Feature","properties":{"id":665,"address":"Melchersstraße","location_desc":"Kanonierplatz","recycling_type":"glass","object_type":"container"},"geometry":{"type":"Point","coordinates":[7.6132,51.9712]}},{"type":"Feature","properties":{"id":672,"address":"Jahnstraße","location_desc":"gegenüber Hs Nr.39","recycling_type":"glass","object_type":"container"},"geometry":{"type":"Point","coordinates":[7.6163,51.976]}},{"type":"Feature","properties":{"id":676,"address":"Von-Einem-Straße","location_desc":"gegenüber Hs Nr. 8","recycling_type":"glass","object_type":"container"},"geometry":{"type":"Point","coordinates":[7.6076,51.9829]}},{"type":"Feature","properties":{"id":685,"address":"Steinfurter Straße","location_desc":"vor Gaststätte ABC Schützenhof","recycling_type":"glass","object_type":"container"},"geometry":{"type":"Point","coordinates":[7.6052,51.9745]}},{"type":"Feature","properties":{"id":695,"address":"York-Ring","location_desc":"Hauptfeuerwache","recycling_type":"glass","object_type":"container"},"geometry":{"type":"Point","coordinates":[7.6104,51.9744]}},{"type":"Feature","properties":{"id":696,"address":"Wilhelmstraße","location_desc":"Ecke Orleans Ring","recycling_type":"glass","object_type":"container"},"geometry":{"type":"Point","coordinates":[7.6033,51.9687]}},{"type":"Feature","properties":{"id":702,"address":"Steinfurter Straße","location_desc":"vor HL Markt, Ecke Grevener Straße","recycling_type":"glass","object_type":"container"},"geometry":{"type":"Point","coordinates":[7.6124,51.9691]}},{"type":"Feature","properties":{"id":714,"address":"Horstmarer Landweg","location_desc":"Ecke Gemenweg","recycling_type":"glass","object_type":"container"},"geometry":{"type":"Point","coordinates":[7.587,51.9752]}},{"type":"Feature","properties":{"id":718,"address":"Von-Esmarch-Straße","location_desc":"Ecke Schreiberstraße","recycling_type":"glass","object_type":"container"},"geometry":{"type":"Point","coordinates":[7.5939,51.9652]}},{"type":"Feature","properties":{"id":721,"address":"Röntgenstraße","location_desc":"Parkplatz FH","recycling_type":"glass","object_type":"container"},"geometry":{"type":"Point","coordinates":[7.5961,51.9682]}},{"type":"Feature","properties":{"id":729,"address":"Enschedeweg","location_desc":"Ecke Rüschhausweg","recycling_type":"glass","object_type":"container"},"geometry":{"type":"Point","coordinates":[7.5787,51.9682]}},{"type":"Feature","properties":{"id":734,"address":"Gescherweg","location_desc":"Ecke Am Breilbusch","recycling_type":"glass","object_type":"container"},"geometry":{"type":"Point","coordinates":[7.5744,51.9756]}},{"type":"Feature","properties":{"id":735,"address":"Arnheimweg","location_desc":"Parkplatz Sportgelände","recycling_type":"glass","object_type":"container"},"geometry":{"type":"Point","coordinates":[7.5748,51.9652]}},{"type":"Feature","properties":{"id":739,"address":"Rüschhausweg","location_desc":"vor Rüschhaus Passage","recycling_type":"glass","object_type":"container"},"geometry":{"type":"Point","coordinates":[7.5655,51.9733]}},{"type":"Feature","properties":{"id":744,"address":"Rüschhausweg","location_desc":"Ecke Asbeckweg","recycling_type":"glass","object_type":"container"},"geometry":{"type":"Point","coordinates":[7.5712,51.9709]}},{"type":"Feature","properties":{"id":745,"address":"Gescherweg","location_desc":"Parkpl. Bildungszentrum der Bundesfinanzverw.","recycling_type":"glass","object_type":"container"},"geometry":{"type":"Point","coordinates":[7.5746,51.9774]}},{"type":"Feature","properties":{"id":746,"address":"Hensenstraße","location_desc":"vor Hs Nr. 192, Getränke Markt","recycling_type":"glass","object_type":"container"},"geometry":{"type":"Point","coordinates":[7.5701,51.9741]}},{"type":"Feature","properties":{"id":751,"address":"Twenteweg","location_desc":"vor Hs Nr. 6","recycling_type":"glass","object_type":"container"},"geometry":{"type":"Point","coordinates":[7.5724,51.9728]}},{"type":"Feature","properties":{"id":752,"address":"Borghorstweg","location_desc":"Ecke Ahausweg","recycling_type":"glass","object_type":"container"},"geometry":{"type":"Point","coordinates":[7.5723,51.9689]}},{"type":"Feature","properties":{"id":753,"address":"Stadtlohnweg","location_desc":"vor Altenheim, gegenüb. Hs Nr. 9-17 Studentenw.","recycling_type":"glass","object_type":"container"},"geometry":{"type":"Point","coordinates":[7.5608,51.9733]}},{"type":"Feature","properties":{"id":758,"address":"Heekweg","location_desc":"gegenüber Studentenwohnheim","recycling_type":"glass","object_type":"container"},"geometry":{"type":"Point","coordinates":[7.5642,51.9728]}},{"type":"Feature","properties":{"id":761,"address":"Mondstraße","location_desc":"Ecke Peter-Rosegger-Straße","recycling_type":"glass","object_type":"container"},"geometry":{"type":"Point","coordinates":[7.6757,51.9499]}},{"type":"Feature","properties":{"id":764,"address":"Mondstraße","location_desc":"Ecke Hans-Bredow-Weg","recycling_type":"glass","object_type":"container"},"geometry":{"type":"Point","coordinates":[7.6763,51.9582]}},{"type":"Feature","properties":{"id":769,"address":"Wolbecker Straße","location_desc":"vor Hs Nr. 294, Plus","recycling_type":"glass","object_type":"container"},"geometry":{"type":"Point","coordinates":[7.6692,51.9514]}},{"type":"Feature","properties":{"id":772,"address":"Pleistermühlenweg","location_desc":"Ecke Zufahrt Recyclinghof","recycling_type":"glass","object_type":"container"},"geometry":{"type":"Point","coordinates":[7.6843,51.9624]}},{"type":"Feature","properties":{"id":773,"address":"Manfred-von-Richthofen-Straße","location_desc":"Ecke Merschkamp","recycling_type":"glass","object_type":"container"},"geometry":{"type":"Point","coordinates":[7.6665,51.9558]}},{"type":"Feature","properties":{"id":793,"address":"Sprickmannstraße","location_desc":"Ecke Josef-Beckmann-Str./Brünningh./Langeworth","recycling_type":"glass","object_type":"container"},"geometry":{"type":"Point","coordinates":[7.5922,51.9977]}},{"type":"Feature","properties":{"id":794,"address":"Friedrich-Ebert-Straße","location_desc":"Busparkplatz","recycling_type":"glass","object_type":"container"},"geometry":{"type":"Point","coordinates":[7.6318,51.9535]}},{"type":"Feature","properties":{"id":801,"address":"Hansaring","location_desc":"vor Extra","recycling_type":"glass","object_type":"container"},"geometry":{"type":"Point","coordinates":[7.6463,51.9538]}},{"type":"Feature","properties":{"id":810,"address":"Bremer Platz","location_desc":"Ecke Hamburger Straße/Zufahrt Bahnhofsplatz","recycling_type":"glass","object_type":"container"},"geometry":{"type":"Point","coordinates":[7.6372,51.9561]}},{"type":"Feature","properties":{"id":823,"address":"Mauritz-Lindenweg","location_desc":"neben Zufahrt zum Parkplatz","recycling_type":"glass","object_type":"container"},"geometry":{"type":"Point","coordinates":[7.6588,51.9591]}},{"type":"Feature","properties":{"id":829,"address":"Gutenbergstraße","location_desc":"Ecke Lortzingstraße","recycling_type":"glass","object_type":"container"},"geometry":{"type":"Point","coordinates":[7.6455,51.9603]}},{"type":"Feature","properties":{"id":843,"address":"Andreas-Hofer-Straße","location_desc":"vor Oberfinanzverwaltung","recycling_type":"glass","object_type":"container"},"geometry":{"type":"Point","coordinates":[7.6529,51.9576]}},{"type":"Feature","properties":{"id":845,"address":"Von-der-Tinnen-Straße","location_desc":"gegenüber Sophienstraße","recycling_type":"glass","object_type":"container"},"geometry":{"type":"Point","coordinates":[7.6482,51.9566]}},{"type":"Feature","properties":{"id":867,"address":"Friedrichstraße","location_desc":"gegenüber Hs Nr. 9, Video-Thek Studio 44Parkplatz","recycling_type":"glass","object_type":"container"},"geometry":{"type":"Point","coordinates":[7.6356,51.9598]}},{"type":"Feature","properties":{"id":873,"address":"Hohenzollernring","location_desc":"gegenüber 51, nähe Ecke Manfred-v.-Richt.-Str.)","recycling_type":"glass","object_type":"container"},"geometry":{"type":"Point","coordinates":[7.6474,51.9584]}},{"type":"Feature","properties":{"id":876,"address":"Oststraße","location_desc":"vor Fernmeldeamt","recycling_type":"glass","object_type":"container"},"geometry":{"type":"Point","coordinates":[7.6454,51.9621]}},{"type":"Feature","properties":{"id":884,"address":"Schillerstraße","location_desc":"gegenüber Ewaldistraße","recycling_type":"glass","object_type":"container"},"geometry":{"type":"Point","coordinates":[7.6474,51.9529]}},{"type":"Feature","properties":{"id":935,"address":"Theo-Breider-Weg","location_desc":"Parkplatz Mühlenhof","recycling_type":"glass","object_type":"container"},"geometry":{"type":"Point","coordinates":[7.5967,51.9501]}},{"type":"Feature","properties":{"id":936,"address":"Sentruper Straße","location_desc":"gegenüber Sportplatz","recycling_type":"glass","object_type":"container"},"geometry":{"type":"Point","coordinates":[7.6012,51.9552]}},{"type":"Feature","properties":{"id":943,"address":"Biederlackweg","location_desc":"vor Hs Nr. 77","recycling_type":"glass","object_type":"container"},"geometry":{"type":"Point","coordinates":[7.6552,51.9306]}},{"type":"Feature","properties":{"id":944,"address":"Boelckeweg","location_desc":"gegenüber Hs Nr. 25","recycling_type":"glass","object_type":"container"},"geometry":{"type":"Point","coordinates":[7.6513,51.9411]}},{"type":"Feature","properties":{"id":954,"address":"Dorffeldstraße","location_desc":"gegenüber Hs Nr. 32","recycling_type":"glass","object_type":"container"},"geometry":{"type":"Point","coordinates":[7.5375,51.9507]}},{"type":"Feature","properties":{"id":958,"address":"Schelmenstiege","location_desc":"Parkplatz Bezirksverwaltungsstelle","recycling_type":"glass","object_type":"container"},"geometry":{"type":"Point","coordinates":[7.5416,51.9547]}},{"type":"Feature","properties":{"id":968,"address":"Tilbecker Straße","location_desc":"Parkplatz Hallenbad","recycling_type":"glass","object_type":"container"},"geometry":{"type":"Point","coordinates":[7.5271,51.9541]}},{"type":"Feature","properties":{"id":979,"address":"Pienersallee","location_desc":"gegenüber Hs Nr. 26","recycling_type":"glass","object_type":"container"},"geometry":{"type":"Point","coordinates":[7.5304,51.9513]}},{"type":"Feature","properties":{"id":982,"address":"Wenningweg","location_desc":"nähe Pienersallee","recycling_type":"glass","object_type":"container"},"geometry":{"type":"Point","coordinates":[7.5264,51.9493]}},{"type":"Feature","properties":{"id":983,"address":"Augustastraße","location_desc":"Ecke Friedrich-Ebert-Straße","recycling_type":"glass","object_type":"container"},"geometry":{"type":"Point","coordinates":[7.6309,51.9481]}},{"type":"Feature","properties":{"id":987,"address":"Herdingstraße","location_desc":"Ecke Travelmannstraße","recycling_type":"glass","object_type":"container"},"geometry":{"type":"Point","coordinates":[7.6281,51.9461]}},{"type":"Feature","properties":{"id":988,"address":"Roddestraße","location_desc":"vor Aldi","recycling_type":"glass","object_type":"container"},"geometry":{"type":"Point","coordinates":[7.6304,51.9433]}},{"type":"Feature","properties":{"id":996,"address":"Geiststraße","location_desc":"Ecke Sentmaringer Weg, Marktplatz","recycling_type":"glass","object_type":"container"},"geometry":{"type":"Point","coordinates":[7.622,51.9455]}},{"type":"Feature","properties":{"id":1004,"address":"Am Berg Fidel","location_desc":"Parkplatz Preußenstadion","recycling_type":"glass","object_type":"container"},"geometry":{"type":"Point","coordinates":[7.6252,51.9318]}},{"type":"Feature","properties":{"id":1006,"address":"Düesbergweg","location_desc":"Maria-Hüffe-Stift","recycling_type":"glass","object_type":"container"},"geometry":{"type":"Point","coordinates":[7.6131,51.931]}},{"type":"Feature","properties":{"id":1012,"address":"Kappenberger Damm","location_desc":"vor Hs Nr. 88","recycling_type":"glass","object_type":"container"},"geometry":{"type":"Point","coordinates":[7.6084,51.9353]}},{"type":"Feature","properties":{"id":1027,"address":"Scheibenstraße","location_desc":"Ecke Friedrich-Ebert-Straße","recycling_type":"glass","object_type":"container"},"geometry":{"type":"Point","coordinates":[7.6254,51.9424]}},{"type":"Feature","properties":{"id":1029,"address":"Scheibenstraße","location_desc":"vor Hs Nr. 114","recycling_type":"glass","object_type":"container"},"geometry":{"type":"Point","coordinates":[7.6274,51.9389]}},{"type":"Feature","properties":{"id":1030,"address":"Fritz-Pütter-Straße","location_desc":"gegenüber HS Nr. 19","recycling_type":"glass","object_type":"container"},"geometry":{"type":"Point","coordinates":[7.6279,51.9365]}},{"type":"Feature","properties":{"id":1038,"address":"Bonhoefferstraße","location_desc":"gegenüber Polizeischule","recycling_type":"glass","object_type":"container"},"geometry":{"type":"Point","coordinates":[7.6068,51.9417]}},{"type":"Feature","properties":{"id":1039,"address":"Von-Stauffenberg-Straße","location_desc":"gegenüber Hs Nr. 36","recycling_type":"glass","object_type":"container"},"geometry":{"type":"Point","coordinates":[7.6123,51.9457]}},{"type":"Feature","properties":{"id":1040,"address":"Wörthstraße","location_desc":"gegenüber Hs Nr. 4","recycling_type":"glass","object_type":"container"},"geometry":{"type":"Point","coordinates":[7.6225,51.9441]}},{"type":"Feature","properties":{"id":1054,"address":"Elsässer Straße","location_desc":"Ecke Metzer Straße","recycling_type":"glass","object_type":"container"},"geometry":{"type":"Point","coordinates":[7.6204,51.9399]}},{"type":"Feature","properties":{"id":1060,"address":"Ossenkampstiege","location_desc":"Ecke Echelmeyerstraße","recycling_type":"glass","object_type":"container"},"geometry":{"type":"Point","coordinates":[7.5896,51.9356]}},{"type":"Feature","properties":{"id":1061,"address":"Ossenkampstiege","location_desc":"Ecke Boeselagerstraße","recycling_type":"glass","object_type":"container"},"geometry":{"type":"Point","coordinates":[7.5964,51.9365]}},{"type":"Feature","properties":{"id":1064,"address":"Korte Ossenbeck","location_desc":"Buskehre","recycling_type":"glass","object_type":"container"},"geometry":{"type":"Point","coordinates":[7.5976,51.9373]}},{"type":"Feature","properties":{"id":1065,"address":"Kleihorststraße","location_desc":"1 mal AK Aktion Friedensdorf vor Bolzplatz, nähe Ecke Niesingstraße","recycling_type":"glass","object_type":"container"},"geometry":{"type":"Point","coordinates":[7.5997,51.9389]}},{"type":"Feature","properties":{"id":1071,"address":"Von-Ossietzky-Straße","location_desc":"gegenüber Tennisplatz","recycling_type":"glass","object_type":"container"},"geometry":{"type":"Point","coordinates":[7.6018,51.9422]}},{"type":"Feature","properties":{"id":1073,"address":"Geringhoffstraße","location_desc":"Parkplatz Hit","recycling_type":"glass","object_type":"container"},"geometry":{"type":"Point","coordinates":[7.6001,51.9299]}},{"type":"Feature","properties":{"id":1074,"address":"Schürbusch","location_desc":"gegenüber Hs Nr. 49","recycling_type":"glass","object_type":"container"},"geometry":{"type":"Point","coordinates":[7.5845,51.9296]}},{"type":"Feature","properties":{"id":1081,"address":"Kanalpromenade","location_desc":"unter der Brücke","recycling_type":"glass","object_type":"container"},"geometry":{"type":"Point","coordinates":[7.6567,51.9064]}},{"type":"Feature","properties":{"id":1082,"address":"Im Hain","location_desc":"gegenüber Hs Nr. 35","recycling_type":"glass","object_type":"container"},"geometry":{"type":"Point","coordinates":[7.6559,51.9127]}},{"type":"Feature","properties":{"id":1083,"address":"Zum Hiltruper See","location_desc":"Ortsausgang, vor Hs Nr.21","recycling_type":"glass","object_type":"container"},"geometry":{"type":"Point","coordinates":[7.6597,51.9036]}},{"type":"Feature","properties":{"id":1097,"address":"Amelsbürener Straße","location_desc":"Ecke Langestraße","recycling_type":"glass","object_type":"container"},"geometry":{"type":"Point","coordinates":[7.6343,51.9004]}},{"type":"Feature","properties":{"id":1104,"address":"Westfalenstraße","location_desc":"gegenüber Zur Vogelstange","recycling_type":"glass","object_type":"container"},"geometry":{"type":"Point","coordinates":[7.641,51.899]}},{"type":"Feature","properties":{"id":1115,"address":"Beethovenstraße","location_desc":"gegenüber Hs Nr. 7","recycling_type":"glass","object_type":"container"},"geometry":{"type":"Point","coordinates":[7.6487,51.91]}},{"type":"Feature","properties":{"id":1116,"address":"Hoffmann-von-Fallersleben-Weg","location_desc":"gegenüber Kortumstraße","recycling_type":"glass","object_type":"container"},"geometry":{"type":"Point","coordinates":[7.6349,51.9026]}},{"type":"Feature","properties":{"id":1125,"address":"Zum Roten Berge","location_desc":"Parkplatz Polizeiakademie","recycling_type":"glass","object_type":"container"},"geometry":{"type":"Point","coordinates":[7.6448,51.8988]}},{"type":"Feature","properties":{"id":1126,"address":"Theodor-Storm-Straße","location_desc":"Ecke Im Stemmen","recycling_type":"glass","object_type":"container"},"geometry":{"type":"Point","coordinates":[7.6316,51.9016]}},{"type":"Feature","properties":{"id":1132,"address":"Amelsbürener Straße","location_desc":"Ecke Meesenstiege","recycling_type":"glass","object_type":"container"},"geometry":{"type":"Point","coordinates":[7.6235,51.8981]}},{"type":"Feature","properties":{"id":1133,"address":"Hünenburg","location_desc":"gegenüber Linckenstraße","recycling_type":"glass","object_type":"container"},"geometry":{"type":"Point","coordinates":[7.6239,51.911]}},{"type":"Feature","properties":{"id":1138,"address":"Burgwall","location_desc":"nähe Linckestraße","recycling_type":"glass","object_type":"container"},"geometry":{"type":"Point","coordinates":[7.6196,51.9068]}},{"type":"Feature","properties":{"id":1140,"address":"Osttor","location_desc":"Parkplatz StadionParkplatz Stadion","recycling_type":"glass","object_type":"container"},"geometry":{"type":"Point","coordinates":[7.6688,51.9066]}},{"type":"Feature","properties":{"id":1150,"address":"Am Roggenkamp","location_desc":"vor Hs Nr. 173","recycling_type":"glass","object_type":"container"},"geometry":{"type":"Point","coordinates":[7.673,51.904]}},{"type":"Feature","properties":{"id":1151,"address":"Adolf-Wentrup-Weg","location_desc":"gegenüber Asternweg","recycling_type":"glass","object_type":"container"},"geometry":{"type":"Point","coordinates":[7.6688,51.9025]}},{"type":"Feature","properties":{"id":1152,"address":"Zum Kaiserbusch","location_desc":"gegenüber Hs Nr. 1, Nähe Ecke Albersloher Weg","recycling_type":"glass","object_type":"container"},"geometry":{"type":"Point","coordinates":[7.6844,51.9127]}},{"type":"Feature","properties":{"id":1153,"address":"Peter-Büscher-Straße","location_desc":"gegenüber Hs Nr. 9","recycling_type":"glass","object_type":"container"},"geometry":{"type":"Point","coordinates":[7.6871,51.9125]}},{"type":"Feature","properties":{"id":1154,"address":"Osthuesheide","location_desc":"im Wendehammer","recycling_type":"glass","object_type":"container"},"geometry":{"type":"Point","coordinates":[7.6899,51.9121]}},{"type":"Feature","properties":{"id":1155,"address":"Schmittingheide","location_desc":"vor Bundesbahnschule","recycling_type":"glass","object_type":"container"},"geometry":{"type":"Point","coordinates":[7.6742,51.9479]}},{"type":"Feature","properties":{"id":1157,"address":"Anton-Knubel-Weg","location_desc":"Ecke Erbdrostenweg","recycling_type":"glass","object_type":"container"},"geometry":{"type":"Point","coordinates":[7.667,51.9318]}},{"type":"Feature","properties":{"id":1160,"address":"Gremmendorfer Weg","location_desc":"Ecke Böddingheideweg","recycling_type":"glass","object_type":"container"},"geometry":{"type":"Point","coordinates":[7.681,51.9322]}},{"type":"Feature","properties":{"id":1170,"address":"Angelmodder Weg","location_desc":"Hst. Agathastraße","recycling_type":"glass","object_type":"container"},"geometry":{"type":"Point","coordinates":[7.6872,51.9284]}},{"type":"Feature","properties":{"id":1171,"address":"Frankenweg","location_desc":"gegenüber Hs Nr.15","recycling_type":"glass","object_type":"container"},"geometry":{"type":"Point","coordinates":[7.669,51.9207]}},{"type":"Feature","properties":{"id":1172,"address":"Buschstraße","location_desc":"gegenüner Hs Nr. 4, Mittelstreifen","recycling_type":"glass","object_type":"container"},"geometry":{"type":"Point","coordinates":[7.6773,51.9221]}},{"type":"Feature","properties":{"id":1173,"address":"Zum Erlenbusch","location_desc":"vor Hs Nr. 100","recycling_type":"glass","object_type":"container"},"geometry":{"type":"Point","coordinates":[7.6812,51.9197]}},{"type":"Feature","properties":{"id":1174,"address":"Vogelrohrsheide","location_desc":"Ecke Stichstr. bei Hs Nr. 136-144","recycling_type":"glass","object_type":"container"},"geometry":{"type":"Point","coordinates":[7.6846,51.9145]}},{"type":"Feature","properties":{"id":1178,"address":"Am Schütthook","location_desc":"Hst. Junker-Jörg-Platz","recycling_type":"glass","object_type":"container"},"geometry":{"type":"Point","coordinates":[7.69,51.9155]}},{"type":"Feature","properties":{"id":1180,"address":"Schlesienstraße","location_desc":"Ecke Ostpreußenstraße","recycling_type":"glass","object_type":"container"},"geometry":{"type":"Point","coordinates":[7.6775,51.9184]}},{"type":"Feature","properties":{"id":1188,"address":"Gremmendorfer Weg","location_desc":"vor Hs Nr. 34, Getränkemarkt","recycling_type":"glass","object_type":"container"},"geometry":{"type":"Point","coordinates":[7.6725,51.9296]}},{"type":"Feature","properties":{"id":1192,"address":"Albersloher Weg","location_desc":"gegenüber Hs Nr. 419","recycling_type":"glass","object_type":"container"},"geometry":{"type":"Point","coordinates":[7.6659,51.9297]}},{"type":"Feature","properties":{"id":1204,"address":"Albersloher Weg","location_desc":"Extra Parkplatz","recycling_type":"glass","object_type":"container"},"geometry":{"type":"Point","coordinates":[7.6717,51.925]}},{"type":"Feature","properties":{"id":1217,"address":"Merkureck","location_desc":"nähe Ecke Hohe Geest","recycling_type":"glass","object_type":"container"},"geometry":{"type":"Point","coordinates":[7.6349,51.9139]}},{"type":"Feature","properties":{"id":1219,"address":"Buldernweg","location_desc":"Ecke Drensteinfurtweg","recycling_type":"glass","object_type":"container"},"geometry":{"type":"Point","coordinates":[7.601,51.9267]}},{"type":"Feature","properties":{"id":1220,"address":"Werneweg","location_desc":"gegenüber Zufahrt zu Hs Nr. 1-72","recycling_type":"glass","object_type":"container"},"geometry":{"type":"Point","coordinates":[7.6032,51.9242]}},{"type":"Feature","properties":{"id":1229,"address":"Rockbusch","location_desc":"Ecke Kleibusch","recycling_type":"glass","object_type":"container"},"geometry":{"type":"Point","coordinates":[7.5758,51.92]}},{"type":"Feature","properties":{"id":1234,"address":"Westenkamp","location_desc":"gegenüber Hs Nr. 32","recycling_type":"glass","object_type":"container"},"geometry":{"type":"Point","coordinates":[7.5742,51.9294]}},{"type":"Feature","properties":{"id":1237,"address":"Heroldstraße","location_desc":"neben Hs Nr. 31","recycling_type":"glass","object_type":"container"},"geometry":{"type":"Point","coordinates":[7.5736,51.9224]}},{"type":"Feature","properties":{"id":1240,"address":"Osthofstraße","location_desc":"Parkplatz Friedhof","recycling_type":"glass","object_type":"container"},"geometry":{"type":"Point","coordinates":[7.5264,51.9235]}},{"type":"Feature","properties":{"id":1241,"address":"Am Kämpken","location_desc":"Am Kämpken vor Spielplatz","recycling_type":"glass","object_type":"container"},"geometry":{"type":"Point","coordinates":[7.5263,51.9202]}},{"type":"Feature","properties":{"id":1245,"address":"Dülmener Straße","location_desc":"vor Friedhof","recycling_type":"glass","object_type":"container"},"geometry":{"type":"Point","coordinates":[7.5215,51.925]}},{"type":"Feature","properties":{"id":1258,"address":"Pater-Kolbe-Straße","location_desc":"Ecke Am Dornbusch","recycling_type":"glass","object_type":"container"},"geometry":{"type":"Point","coordinates":[7.6158,51.8833]}},{"type":"Feature","properties":{"id":1268,"address":"Eichendorffstraße","location_desc":"vor Hs Nr. 3","recycling_type":"glass","object_type":"container"},"geometry":{"type":"Point","coordinates":[7.691,51.9144]}},{"type":"Feature","properties":{"id":1269,"address":"Theodor-Heuss-Straße","location_desc":"vor Hs Nr. 10","recycling_type":"glass","object_type":"container"},"geometry":{"type":"Point","coordinates":[7.6927,51.9147]}},{"type":"Feature","properties":{"id":1274,"address":"Hiltruper Straße","location_desc":"auf Parkstreifen gegenüber Hs Nr. 68","recycling_type":"glass","object_type":"container"},"geometry":{"type":"Point","coordinates":[7.7179,51.9115]}},{"type":"Feature","properties":{"id":1280,"address":"Am Steintor","location_desc":"gegenüer Hs Nr. 66","recycling_type":"glass","object_type":"container"},"geometry":{"type":"Point","coordinates":[7.7284,51.912]}},{"type":"Feature","properties":{"id":1296,"address":"Eschstraße","location_desc":"gegenüber Hs Nr. 3a","recycling_type":"glass","object_type":"container"},"geometry":{"type":"Point","coordinates":[7.7274,51.9214]}},{"type":"Feature","properties":{"id":1297,"address":"Goldbrink","location_desc":"auf Parkstreifen Ecke Kupferbrink","recycling_type":"glass","object_type":"container"},"geometry":{"type":"Point","coordinates":[7.7216,51.9229]}},{"type":"Feature","properties":{"id":1304,"address":"Kriegerweg","location_desc":"vor Bahnbrücke rechts","recycling_type":"glass","object_type":"container"},"geometry":{"type":"Point","coordinates":[7.6119,51.9247]}},{"type":"Feature","properties":{"id":1311,"address":"Ter-Borch-Straße","location_desc":"auf Parkplatz","recycling_type":"glass","object_type":"container"},"geometry":{"type":"Point","coordinates":[7.6206,51.9255]}},{"type":"Feature","properties":{"id":1314,"address":"Pankokstraße","location_desc":"segmentanfang (altenheim)","recycling_type":"glass","object_type":"container"},"geometry":{"type":"Point","coordinates":[7.6228,51.9264]}},{"type":"Feature","properties":{"id":1315,"address":"Am Berg Fidel","location_desc":"? gegenüber Hs Nr. 66","recycling_type":"glass","object_type":"container"},"geometry":{"type":"Point","coordinates":[7.624,51.927]}},{"type":"Feature","properties":{"id":1318,"address":"Hogenbergstraße","location_desc":"? vor Hs Nr. 27","recycling_type":"glass","object_type":"container"},"geometry":{"type":"Point","coordinates":[7.62,51.9272]}},{"type":"Feature","properties":{"id":1319,"address":"Lechterstraße","location_desc":"? gegenüber Parkplatz","recycling_type":"glass","object_type":"container"},"geometry":{"type":"Point","coordinates":[7.6174,51.9256]}},{"type":"Feature","properties":{"id":1325,"address":"Elsa-Brändström-Weg","location_desc":"auf Gehweg Ecke Vennheideweg","recycling_type":"glass","object_type":"container"},"geometry":{"type":"Point","coordinates":[7.6217,51.9214]}},{"type":"Feature","properties":{"id":1326,"address":"Brandhoveweg","location_desc":"Nähe Ecke Hiltruper Str.","recycling_type":"glass","object_type":"container"},"geometry":{"type":"Point","coordinates":[7.7121,51.9111]}},{"type":"Feature","properties":{"id":1327,"address":"Alter Postweg","location_desc":"gegenüber Hs Nr. 70","recycling_type":"glass","object_type":"container"},"geometry":{"type":"Point","coordinates":[7.7,51.924]}},{"type":"Feature","properties":{"id":1328,"address":"Am Hawerkamp","location_desc":"? auf Parkplatz vor Hs Nr. 39","recycling_type":"glass","object_type":"container"},"geometry":{"type":"Point","coordinates":[7.6381,51.9461]}},{"type":"Feature","properties":{"id":1329,"address":"Steinfurter Straße","location_desc":"auf Gelände Studentenwohnheim","recycling_type":"glass","object_type":"container"},"geometry":{"type":"Point","coordinates":[7.6065,51.9723]}},{"type":"Feature","properties":{"id":1330,"address":"Warendorfer Straße","location_desc":"auf Parkplatz","recycling_type":"glass","object_type":"container"},"geometry":{"type":"Point","coordinates":[7.6575,51.9678]}},{"type":"Feature","properties":{"id":1331,"address":"Wolbecker Straße","location_desc":"Parkplatz Freibad Stapelskotten","recycling_type":"glass","object_type":"container"},"geometry":{"type":"Point","coordinates":[7.6832,51.9481]}},{"type":"Feature","properties":{"id":1336,"address":"Königsstraße","location_desc":"unterirdisch glas, gegenüber Hs Nr. 20","recycling_type":"glass","object_type":"container"},"geometry":{"type":"Point","coordinates":[7.6258,51.959]}},{"type":"Feature","properties":{"id":1337,"address":"Piusallee","location_desc":"Ecke Holsteiner Str. (Parkplatz)","recycling_type":"glass","object_type":"container"},"geometry":{"type":"Point","coordinates":[7.641,51.9714]}},{"type":"Feature","properties":{"id":1366,"address":"Heisenbergstraße","location_desc":"vor Hs Nr. 131-134","recycling_type":"glass","object_type":"container"},"geometry":{"type":"Point","coordinates":[7.5915,51.9697]}},{"type":"Feature","properties":{"id":1368,"address":"Meyerbeerstraße","location_desc":"Parkstreifen","recycling_type":"glass","object_type":"container"},"geometry":{"type":"Point","coordinates":[7.5767,51.9258]}},{"type":"Feature","properties":{"id":1372,"address":"Hiltruper Straße","location_desc":"Marktplatz","recycling_type":"glass","object_type":"container"},"geometry":{"type":"Point","coordinates":[7.7255,51.916]}},{"type":"Feature","properties":{"id":1373,"address":"Franz-Marc-Weg","location_desc":"Buswendeplatz","recycling_type":"glass","object_type":"container"},"geometry":{"type":"Point","coordinates":[7.6668,51.9011]}},{"type":"Feature","properties":{"id":1379,"address":"Katthagen","location_desc":"Ecke Rosenplatz","recycling_type":"glass","object_type":"container"},"geometry":{"type":"Point","coordinates":[7.6222,51.9651]}},{"type":"Feature","properties":{"id":1380,"address":"Concordenstraße","location_desc":"Parkplatz am Sportplatz","recycling_type":"glass","object_type":"container"},"geometry":{"type":"Point","coordinates":[7.5298,51.9239]}},{"type":"Feature","properties":{"id":1381,"address":"Hofstraße","location_desc":"vor dem Feuerwehrgerätehaus/Hst. Kurhaus","recycling_type":"glass","object_type":"container"},"geometry":{"type":"Point","coordinates":[7.7346,51.9171]}},{"type":"Feature","properties":{"id":1382,"address":"Davertstraße","location_desc":"Parkplatz","recycling_type":"glass","object_type":"container"},"geometry":{"type":"Point","coordinates":[7.6046,51.8855]}},{"type":"Feature","properties":{"id":1383,"address":"Ritterstraße","location_desc":"Hörster Parkplatz","recycling_type":"glass","object_type":"container"},"geometry":{"type":"Point","coordinates":[7.6315,51.9641]}},{"type":"Feature","properties":{"id":1384,"address":"Marktallee","location_desc":"Parkplatz Stadthalle","recycling_type":"glass","object_type":"container"},"geometry":{"type":"Point","coordinates":[7.6399,51.9023]}},{"type":"Feature","properties":{"id":1385,"address":"Rudolf-Harbig-Weg","location_desc":"vor Hs Nr. 39-51 (Parkbucht)","recycling_type":"glass","object_type":"container"},"geometry":{"type":"Point","coordinates":[7.5936,51.9742]}},{"type":"Feature","properties":{"id":1386,"address":"Laerer Werseufer","location_desc":"Freibad Stapelskotten (gegnü. Einf. Campingpl.)","recycling_type":"glass","object_type":"container"},"geometry":{"type":"Point","coordinates":[7.6906,51.9468]}},{"type":"Feature","properties":{"id":1387,"address":"Straße A 1 Köln - Bremen","location_desc":"Höhe PKW Parkplatz","recycling_type":"glass","object_type":"container"},"geometry":{"type":"Point","coordinates":[7.5512,51.9411]}},{"type":"Feature","properties":{"id":1388,"address":"Straße A 1 Köln - Bremen","location_desc":"in Höhe Pkw Parkplatz","recycling_type":"glass","object_type":"container"},"geometry":{"type":"Point","coordinates":[7.5481,51.9446]}},{"type":"Feature","properties":{"id":1392,"address":"Am Borggarten","recycling_type":"glass","object_type":"container"},"geometry":{"type":"Point","coordinates":[7.7305,51.9214]}},{"type":"Feature","properties":{"id":1393,"address":"Am Schütthook","location_desc":"Parkplatz Am Schütthook","recycling_type":"glass","object_type":"container"},"geometry":{"type":"Point","coordinates":[7.6944,51.9161]}},{"type":"Feature","properties":{"id":1396,"address":"Grevener Straße","location_desc":"vor Hs Nr. 89","recycling_type":"glass","object_type":"container"},"geometry":{"type":"Point","coordinates":[7.612,51.9772]}},{"type":"Feature","properties":{"id":1405,"address":"Moränenstraße","recycling_type":"glass","object_type":"container"},"geometry":{"type":"Point","coordinates":[7.6425,51.905]}},{"type":"Feature","properties":{"id":1406,"address":"Max-Winkelmann-Straße","recycling_type":"glass","object_type":"container"},"geometry":{"type":"Point","coordinates":[7.6542,51.9039]}},{"type":"Feature","properties":{"id":1408,"address":"Brandhoveweg","location_desc":"Nähe Twenhövenweg","recycling_type":"glass","object_type":"container"},"geometry":{"type":"Point","coordinates":[7.7078,51.9176]}},{"type":"Feature","properties":{"id":1411,"address":"Schlusenweg","location_desc":"Ecke Kapustaweg","recycling_type":"glass","object_type":"container"},"geometry":{"type":"Point","coordinates":[7.6182,52.0329]}},{"type":"Feature","properties":{"id":1412,"address":"Stiftsstraße","recycling_type":"glass","object_type":"container"},"geometry":{"type":"Point","coordinates":[7.649,51.9638]}},{"type":"Feature","properties":{"id":1417,"address":"Brockmannstraße","location_desc":"gegenüber Hs Nr. 66","recycling_type":"glass","object_type":"container"},"geometry":{"type":"Point","coordinates":[7.5792,51.9305]}},{"type":"Feature","properties":{"id":1431,"address":"Schulte-Hermann-Straße","location_desc":"bei Hs Nr. 9","recycling_type":"glass","object_type":"container"},"geometry":{"type":"Point","coordinates":[7.5336,51.9533]}},{"type":"Feature","properties":{"id":1587,"address":"Langenkamp","location_desc":"Bahnhof Albachten","recycling_type":"glass","object_type":"container"},"geometry":{"type":"Point","coordinates":[7.5264,51.9146]}},{"type":"Feature","properties":{"id":1588,"address":"Davertstraße","location_desc":"Parkplatz Feuerwehr/Friedhof","recycling_type":"glass","object_type":"container"},"geometry":{"type":"Point","coordinates":[7.6085,51.8813]}},{"type":"Feature","properties":{"id":1589,"address":"Auf der Woort","location_desc":"gegenüber Hst. Davertstraße C","recycling_type":"glass","object_type":"container"},"geometry":{"type":"Point","coordinates":[7.6054,51.883]}},{"type":"Feature","properties":{"id":1590,"address":"Kappenberger Damm","location_desc":"Parkplatz Wiedau-Schule, 2 x Glas","recycling_type":"glass","object_type":"container"},"geometry":{"type":"Point","coordinates":[7.5788,51.8945]}},{"type":"Feature","properties":{"id":1591,"address":"An der Kleimannbrücke","location_desc":"Ecke August-Horch-Straße","recycling_type":"glass","object_type":"container"},"geometry":{"type":"Point","coordinates":[7.6626,51.9959]}},{"type":"Feature","properties":{"id":1592,"address":"Hessenbusch","location_desc":"Hs Nr. 186 (EZN)","recycling_type":"glass","object_type":"container"},"geometry":{"type":"Point","coordinates":[7.6656,52.0111]}},{"type":"Feature","properties":{"id":1593,"address":"Bernings Kotten","location_desc":"Recyclinghof Gievenbeck, Berningskotten","recycling_type":"glass","object_type":"container"},"geometry":{"type":"Point","coordinates":[7.5706,51.9609]}},{"type":"Feature","properties":{"id":1594,"address":"Roxeler Straße","location_desc":"RATIO Verbrauchermarkt Roxeler Str.416-420","recycling_type":"glass","object_type":"container"},"geometry":{"type":"Point","coordinates":[7.5717,51.9576]}},{"type":"Feature","properties":{"id":1595,"address":"Wickenkamp","location_desc":"Ecke Dieckmannstraße","recycling_type":"glass","object_type":"container"},"geometry":{"type":"Point","coordinates":[7.5621,51.968]}},{"type":"Feature","properties":{"id":1596,"address":"Gievenbecker Reihe","location_desc":"am Sportplatz","recycling_type":"glass","object_type":"container"},"geometry":{"type":"Point","coordinates":[7.568,51.9653]}},{"type":"Feature","properties":{"id":1597,"address":"Egbert-Snoek-Straße","location_desc":"Parkplatz Marktkauf","recycling_type":"glass","object_type":"container"},"geometry":{"type":"Point","coordinates":[7.6466,51.9391]}},{"type":"Feature","properties":{"id":1598,"address":"Im Sundern","location_desc":"Ecke Mariendorfer Straße","recycling_type":"glass","object_type":"container"},"geometry":{"type":"Point","coordinates":[7.674,51.9886]}},{"type":"Feature","properties":{"id":1599,"address":"Glasuritstraße","location_desc":"Recyclinghof Hiltrup","recycling_type":"glass","object_type":"container"},"geometry":{"type":"Point","coordinates":[7.6442,51.8958]}},{"type":"Feature","properties":{"id":1600,"address":"Zum Hiltruper See","location_desc":"Parkplatz Hohe Ward","recycling_type":"glass","object_type":"container"},"geometry":{"type":"Point","coordinates":[7.6497,51.8864]}},{"type":"Feature","properties":{"id":1601,"address":"Diesterwegstraße","location_desc":"Ecke Meinertzstraße","recycling_type":"glass","object_type":"container"},"geometry":{"type":"Point","coordinates":[7.5993,52.0019]}},{"type":"Feature","properties":{"id":1602,"address":"Waltruper Weg","location_desc":"Recyclinghof Nienberge","recycling_type":"glass","object_type":"container"},"geometry":{"type":"Point","coordinates":[7.5436,51.9931]}},{"type":"Feature","properties":{"id":1603,"address":"Rösnerstraße","location_desc":"Recyclinghof Eulerstraße","recycling_type":"glass","object_type":"container"},"geometry":{"type":"Point","coordinates":[7.6415,51.9389]}},{"type":"Feature","properties":{"id":1604,"address":"Fridtjof-Nansen-Weg","location_desc":"vor Hs Nr. 10","recycling_type":"glass","object_type":"container"},"geometry":{"type":"Point","coordinates":[7.6548,51.9332]}},{"type":"Feature","properties":{"id":1605,"address":"Hessenbusch","location_desc":"gegenüber Hs Nr. 184 (Wagenburg)","recycling_type":"glass","object_type":"container"},"geometry":{"type":"Point","coordinates":[7.6654,52.0108]}},{"type":"Feature","properties":{"id":1606,"address":"Brandhoveweg","location_desc":"Parkplatz Hallenbad","recycling_type":"glass","object_type":"container"},"geometry":{"type":"Point","coordinates":[7.7151,51.9159]}},{"type":"Feature","properties":{"id":1607,"address":"Kärntner Straße","location_desc":"Ecke Dieckstraße","recycling_type":"glass","object_type":"container"},"geometry":{"type":"Point","coordinates":[7.6492,51.9709]}},{"type":"Feature","properties":{"id":1608,"address":"Horstmarer Landweg","location_desc":"Nähe Kreuzung Horstmarer Landweg / Corrensstraße","recycling_type":"glass","object_type":"container"},"geometry":{"type":"Point","coordinates":[7.5964,51.9714]}},{"type":"Feature","properties":{"id":715,"address":"Rudolf-Harbig-Weg","location_desc":"gegenüber Bentelerstraße","recycling_type":"glass","object_type":"container"},"geometry":{"type":"Point","coordinates":[7.5947,51.9727]}},{"type":"Feature","properties":{"id":4,"address":"Kristiansandstraße","location_desc":"Hst. Rektoratsweg (Richtung Grevener Straße)","recycling_type":"individual waste","object_type":"waste basket","hours":"all day, every day","shop_type":false,"telephone":false},"geometry":{"type":"Point","coordinates":[7.6081,51.9974]}},{"type":"Feature","properties":{"id":5,"address":"Am Burloh","location_desc":"Hst. Am Burloh A","recycling_type":"individual waste","object_type":"waste basket","hours":"all day, every day","shop_type":false,"telephone":false},"geometry":{"type":"Point","coordinates":[7.6112,51.9935]}},{"type":"Feature","properties":{"id":6,"address":"Corrensstraße","location_desc":"Hst. Correnstraße (Richtung Rudolf-Harbig-Weg)","recycling_type":"individual waste","object_type":"waste basket","hours":"all day, every day","shop_type":false,"telephone":false},"geometry":{"type":"Point","coordinates":[7.5972,51.9709]}},{"type":"Feature","properties":{"id":7,"address":"Loerstraße","location_desc":"Hst. Raphaelsklinik (Richtung Klemensstraße)","recycling_type":"individual waste","object_type":"waste basket","hours":"all day, every day","shop_type":false,"telephone":false},"geometry":{"type":"Point","coordinates":[7.6296,51.9593]}},{"type":"Feature","properties":{"id":8,"address":"Von-Esmarch-Straße","location_desc":"Hst. Schreiberstraße (Ri. Busso-Peus-Straße)","recycling_type":"individual waste","object_type":"waste basket","hours":"all day, every day","shop_type":false,"telephone":false},"geometry":{"type":"Point","coordinates":[7.5951,51.9651]}},{"type":"Feature","properties":{"id":9,"address":"Enschedeweg","location_desc":"Hst. Michaelkirche (Richtung Potstiege)","recycling_type":"individual waste","object_type":"waste basket","hours":"all day, every day","shop_type":false,"telephone":false},"geometry":{"type":"Point","coordinates":[7.5789,51.9679]}},{"type":"Feature","properties":{"id":10,"address":"Rudolf-Steiner-Weg","location_desc":"Hst. Rudolf-Steiner-Weg (Schulbus)","recycling_type":"individual waste","object_type":"waste basket","hours":"all day, every day","shop_type":false,"telephone":false},"geometry":{"type":"Point","coordinates":[7.5801,51.9703]}},{"type":"Feature","properties":{"id":11,"address":"Schifffahrter Damm","location_desc":"Hst. Abzweig Mariendorf (stadtauswärts)","recycling_type":"individual waste","object_type":"waste basket","hours":"all day, every day","shop_type":false,"telephone":false},"geometry":{"type":"Point","coordinates":[7.6628,51.9873]}},{"type":"Feature","properties":{"id":12,"address":"Scharnhorststraße","location_desc":"Hst. Scharnhorststraße (Ri. Weseler Straße)","recycling_type":"individual waste","object_type":"waste basket","hours":"all day, every day","shop_type":false,"telephone":false},"geometry":{"type":"Point","coordinates":[7.619,51.955]}},{"type":"Feature","properties":{"id":13,"address":"Bohlweg","location_desc":"Hst. Hörstertor A (Ri. Gartenstraße)","recycling_type":"individual waste","object_type":"waste basket","hours":"all day, every day","shop_type":false,"telephone":false},"geometry":{"type":"Point","coordinates":[7.6346,51.9658]}},{"type":"Feature","properties":{"id":14,"address":"Michaelisplatz","location_desc":"Ecke Prinzipalmarkt","recycling_type":"individual waste","object_type":"waste basket","hours":"all day, every day","shop_type":false,"telephone":false},"geometry":{"type":"Point","coordinates":[7.6277,51.9618]}},{"type":"Feature","properties":{"id":15,"address":"Heisstraße","location_desc":"Ecke Sternstraße","recycling_type":"individual waste","object_type":"waste basket","hours":"all day, every day","shop_type":false,"telephone":false},"geometry":{"type":"Point","coordinates":[7.6446,51.9589]}},{"type":"Feature","properties":{"id":16,"address":"Rösnerstraße","location_desc":"Betriebsgelände","recycling_type":"individual waste","object_type":"waste basket","hours":"all day, every day","shop_type":false,"telephone":false},"geometry":{"type":"Point","coordinates":[7.6435,51.9402]}},{"type":"Feature","properties":{"id":17,"address":"Stubengasse","location_desc":"Mülltonne für Glutton","recycling_type":"individual waste","object_type":"waste basket","hours":"all day, every day","shop_type":false,"telephone":false},"geometry":{"type":"Point","coordinates":[7.6286,51.9605]}},{"type":"Feature","properties":{"id":18,"address":"Gescherweg","location_desc":"vor Jugendtreff","recycling_type":"individual waste","object_type":"waste basket","hours":"all day, every day","shop_type":false,"telephone":false},"geometry":{"type":"Point","coordinates":[7.5734,51.9764]}},{"type":"Feature","properties":{"id":19,"address":"Tilbecker Straße","location_desc":"Hst. Roxel Hallenbad A","recycling_type":"individual waste","object_type":"waste basket","hours":"all day, every day","shop_type":false,"telephone":false},"geometry":{"type":"Point","coordinates":[7.5275,51.9545]}},{"type":"Feature","properties":{"id":20,"address":"Paul-Gerhardt-Straße","location_desc":"Hst. Paul-Gerhardt-Straße (Ri. Dorffeldstraße)","recycling_type":"individual waste","object_type":"waste basket","hours":"all day, every day","shop_type":false,"telephone":false},"geometry":{"type":"Point","coordinates":[7.5351,51.9492]}},{"type":"Feature","properties":{"id":21,"address":"Langenkamp","location_desc":"Hst. Langenkamp (Ri. Osthofstraße)","recycling_type":"individual waste","object_type":"waste basket","hours":"all day, every day","shop_type":false,"telephone":false},"geometry":{"type":"Point","coordinates":[7.5252,51.9165]}},{"type":"Feature","properties":{"id":22,"address":"Heroldstraße","location_desc":"Hst. Ripenhorst (Richtung Weseler Straße)","recycling_type":"individual waste","object_type":"waste basket","hours":"all day, every day","shop_type":false,"telephone":false},"geometry":{"type":"Point","coordinates":[7.5734,51.921]}},{"type":"Feature","properties":{"id":23,"address":"Schlossplatz","location_desc":"Fußgängerampel / Ecke Überwasserstraße","recycling_type":"individual waste","object_type":"waste basket","hours":"all day, every day","shop_type":false,"telephone":false},"geometry":{"type":"Point","coordinates":[7.6178,51.9653]}},{"type":"Feature","properties":{"id":25,"address":"Orléans-Ring","location_desc":"Hst. P+R Coesfelder Kreuz C","recycling_type":"individual waste","object_type":"waste basket","hours":"all day, every day","shop_type":false,"telephone":false},"geometry":{"type":"Point","coordinates":[7.6019,51.9659]}},{"type":"Feature","properties":{"id":26,"address":"Mecklenbecker Straße","location_desc":"Hst. Bonhoefferstraße (Richtung Bischopinkstr.)","recycling_type":"individual waste","object_type":"waste basket","hours":"all day, every day","shop_type":false,"telephone":false},"geometry":{"type":"Point","coordinates":[7.6012,51.9455]}},{"type":"Feature","properties":{"id":27,"address":"Gerichtsstraße","location_desc":"Hst. Landgericht (Richtung Schlossplatz)","recycling_type":"individual waste","object_type":"waste basket","hours":"all day, every day","shop_type":false,"telephone":false},"geometry":{"type":"Point","coordinates":[7.6157,51.9618]}},{"type":"Feature","properties":{"id":28,"address":"Bergstraße","location_desc":"Ecke Schlaunstraße (vor Hs Nr. 14)","recycling_type":"individual waste","object_type":"waste basket","hours":"all day, every day","shop_type":false,"telephone":false},"geometry":{"type":"Point","coordinates":[7.6231,51.9661]}},{"type":"Feature","properties":{"id":30,"address":"Hammer Straße","location_desc":"St. Josefs-Kirchplatz","recycling_type":"individual waste","object_type":"waste basket","hours":"all day, every day","shop_type":false,"telephone":false},"geometry":{"type":"Point","coordinates":[7.6247,51.9497]}},{"type":"Feature","properties":{"id":31,"address":"Marktallee","location_desc":"Ecke Am Kalvarienberg","recycling_type":"individual waste","object_type":"waste basket","hours":"all day, every day","shop_type":false,"telephone":false},"geometry":{"type":"Point","coordinates":[7.6452,51.9042]}},{"type":"Feature","properties":{"id":32,"address":"Weseler Straße","location_desc":"Ecke Dondersring","recycling_type":"individual waste","object_type":"waste basket","hours":"all day, every day","shop_type":false,"telephone":false},"geometry":{"type":"Point","coordinates":[7.6171,51.9497]}},{"type":"Feature","properties":{"id":33,"address":"Am Kreativkai","location_desc":"PK 3 + 4 von 14","recycling_type":"individual waste","object_type":"waste basket","hours":"all day, every day","shop_type":false,"telephone":false},"geometry":{"type":"Point","coordinates":[7.6397,51.9518]}},{"type":"Feature","properties":{"id":34,"address":"Am Kreativkai","location_desc":"PK 5 + 6 von 14","recycling_type":"individual waste","object_type":"waste basket","hours":"all day, every day","shop_type":false,"telephone":false},"geometry":{"type":"Point","coordinates":[7.6405,51.952]}},{"type":"Feature","properties":{"id":35,"address":"Am Kreativkai","location_desc":"PK 7 + 8 von 14","recycling_type":"individual waste","object_type":"waste basket","hours":"all day, every day","shop_type":false,"telephone":false},"geometry":{"type":"Point","coordinates":[7.6415,51.952]}},{"type":"Feature","properties":{"id":36,"address":"Am Kreativkai","location_desc":"PK 9 + 10 von 14","recycling_type":"individual waste","object_type":"waste basket","hours":"all day, every day","shop_type":false,"telephone":false},"geometry":{"type":"Point","coordinates":[7.6424,51.9519]}},{"type":"Feature","properties":{"id":37,"address":"Am Kreativkai","location_desc":"PK 11 + 12 von 14","recycling_type":"individual waste","object_type":"waste basket","hours":"all day, every day","shop_type":false,"telephone":false},"geometry":{"type":"Point","coordinates":[7.6432,51.9518]}},{"type":"Feature","properties":{"id":38,"address":"Am Kreativkai","location_desc":"PK 13 + 14 von 14","recycling_type":"individual waste","object_type":"waste basket","hours":"all day, every day","shop_type":false,"telephone":false},"geometry":{"type":"Point","coordinates":[7.644,51.9517]}},{"type":"Feature","properties":{"id":39,"address":"Am Kreativkai","location_desc":"Ende Kreativkai","recycling_type":"individual waste","object_type":"waste basket","hours":"all day, every day","shop_type":false,"telephone":false},"geometry":{"type":"Point","coordinates":[7.6447,51.9517]}},{"type":"Feature","properties":{"id":40,"address":"Promenade","recycling_type":"individual waste","object_type":"waste basket","hours":"all day, every day","shop_type":false,"telephone":false},"geometry":{"type":"Point","coordinates":[7.6187,51.958]}},{"type":"Feature","properties":{"id":41,"address":"Domplatz","location_desc":"in Gasse zur Lambertikirche","recycling_type":"individual waste","object_type":"waste basket","hours":"all day, every day","shop_type":false,"telephone":false},"geometry":{"type":"Point","coordinates":[7.6274,51.963]}},{"type":"Feature","properties":{"id":42,"address":"Promenade","recycling_type":"individual waste","object_type":"waste basket","hours":"all day, every day","shop_type":false,"telephone":false},"geometry":{"type":"Point","coordinates":[7.6187,51.9579]}},{"type":"Feature","properties":{"id":43,"address":"Domplatz","location_desc":"Ecke Marktcafè","recycling_type":"individual waste","object_type":"waste basket","hours":"all day, every day","shop_type":false,"telephone":false},"geometry":{"type":"Point","coordinates":[7.6253,51.9621]}},{"type":"Feature","properties":{"id":44,"address":"Promenade","recycling_type":"individual waste","object_type":"waste basket","hours":"all day, every day","shop_type":false,"telephone":false},"geometry":{"type":"Point","coordinates":[7.617,51.958]}},{"type":"Feature","properties":{"id":45,"address":"Promenade","recycling_type":"individual waste","object_type":"waste basket","hours":"all day, every day","shop_type":false,"telephone":false},"geometry":{"type":"Point","coordinates":[7.6165,51.9586]}},{"type":"Feature","properties":{"id":46,"address":"Horsteberg","location_desc":"gegenüb. Dom","recycling_type":"individual waste","object_type":"waste basket","hours":"all day, every day","shop_type":false,"telephone":false},"geometry":{"type":"Point","coordinates":[7.6263,51.9634]}},{"type":"Feature","properties":{"id":47,"address":"Promenade","recycling_type":"individual waste","object_type":"waste basket","hours":"all day, every day","shop_type":false,"telephone":false},"geometry":{"type":"Point","coordinates":[7.6155,51.9597]}},{"type":"Feature","properties":{"id":48,"address":"Promenade","recycling_type":"individual waste","object_type":"waste basket","hours":"all day, every day","shop_type":false,"telephone":false},"geometry":{"type":"Point","coordinates":[7.6147,51.9603]}},{"type":"Feature","properties":{"id":49,"address":"Geisbergweg","location_desc":"vor Post","recycling_type":"individual waste","object_type":"waste basket","hours":"all day, every day","shop_type":false,"telephone":false},"geometry":{"type":"Point","coordinates":[7.6259,51.9616]}},{"type":"Feature","properties":{"id":50,"address":"Idenbrockplatz","location_desc":"vor Hs Nr. 26 (Arbeitsagentur)","recycling_type":"individual waste","object_type":"waste basket","hours":"all day, every day","shop_type":false,"telephone":false},"geometry":{"type":"Point","coordinates":[7.6026,51.9949]}},{"type":"Feature","properties":{"id":51,"address":"Salzstraße","location_desc":"vor Karstadt Ecke Heinrich-Brüning-Str.","recycling_type":"individual waste","object_type":"waste basket","hours":"all day, every day","shop_type":false,"telephone":false},"geometry":{"type":"Point","coordinates":[7.6305,51.9619]}},{"type":"Feature","properties":{"id":52,"address":"Bült","location_desc":"Hst. Bült B","recycling_type":"individual waste","object_type":"waste basket","hours":"all day, every day","shop_type":false,"telephone":false},"geometry":{"type":"Point","coordinates":[7.6305,51.9641]}},{"type":"Feature","properties":{"id":53,"address":"Bült","location_desc":"Hst. Bült A","recycling_type":"individual waste","object_type":"waste basket","hours":"all day, every day","shop_type":false,"telephone":false},"geometry":{"type":"Point","coordinates":[7.6304,51.9639]}},{"type":"Feature","properties":{"id":54,"address":"Dorbaumstraße","location_desc":"Hst. Drei Eichen (Richtung Dorbaum)","recycling_type":"individual waste","object_type":"waste basket","hours":"all day, every day","shop_type":false,"telephone":false},"geometry":{"type":"Point","coordinates":[7.7109,51.9966]}},{"type":"Feature","properties":{"id":55,"address":"Dorbaumstraße","location_desc":"Hst. Drei Eichen (Richtung Middelfeld)","recycling_type":"individual waste","object_type":"waste basket","hours":"all day, every day","shop_type":false,"telephone":false},"geometry":{"type":"Point","coordinates":[7.7107,51.996]}},{"type":"Feature","properties":{"id":56,"address":"Immelmannstraße","location_desc":"Hst. In der Stroth (Richtung Middelfeld)","recycling_type":"individual waste","object_type":"waste basket","hours":"all day, every day","shop_type":false,"telephone":false},"geometry":{"type":"Point","coordinates":[7.7144,51.9989]}},{"type":"Feature","properties":{"id":57,"address":"Dorbaumstraße","location_desc":"Hst. Handorf Fachklinik Hornheide (Ri. Am Kerkamp)","recycling_type":"individual waste","object_type":"waste basket","hours":"all day, every day","shop_type":false,"telephone":false},"geometry":{"type":"Point","coordinates":[7.7071,52.0108]}},{"type":"Feature","properties":{"id":58,"address":"Dorbaumstraße","location_desc":"Hst. Kirschgarten (Ri. Handorf Mitte)","recycling_type":"individual waste","object_type":"waste basket","hours":"all day, every day","shop_type":false,"telephone":false},"geometry":{"type":"Point","coordinates":[7.6998,51.9895]}},{"type":"Feature","properties":{"id":59,"address":"Lauheider Straße","location_desc":"Hst. Waldfriehof Lauheide","recycling_type":"individual waste","object_type":"waste basket","hours":"all day, every day","shop_type":false,"telephone":false},"geometry":{"type":"Point","coordinates":[7.7507,52.0003]}},{"type":"Feature","properties":{"id":61,"address":"Kristiansandstraße","location_desc":"Hst. Kinderhaus Schulzentrum C","recycling_type":"individual waste","object_type":"waste basket","hours":"all day, every day","shop_type":false,"telephone":false},"geometry":{"type":"Point","coordinates":[7.6024,51.9971]}},{"type":"Feature","properties":{"id":62,"address":"Kristiansandstraße","location_desc":"Ecke Idenbrockplatz","recycling_type":"individual waste","object_type":"waste basket","hours":"all day, every day","shop_type":false,"telephone":false},"geometry":{"type":"Point","coordinates":[7.6039,51.9969]}},{"type":"Feature","properties":{"id":64,"address":"Düesbergweg","location_desc":"Hst. Clemenshospital","recycling_type":"individual waste","object_type":"waste basket","hours":"all day, every day","shop_type":false,"telephone":false},"geometry":{"type":"Point","coordinates":[7.6158,51.9329]}},{"type":"Feature","properties":{"id":65,"address":"Hamannplatz","location_desc":"an Tischtennisplatten","recycling_type":"individual waste","object_type":"waste basket","hours":"all day, every day","shop_type":false,"telephone":false},"geometry":{"type":"Point","coordinates":[7.6487,51.9945]}},{"type":"Feature","properties":{"id":66,"address":"Manfred-von-Richthofen-Straße","location_desc":"Hst. 08-Stadion (Richtung einwärts)","recycling_type":"individual waste","object_type":"waste basket","hours":"all day, every day","shop_type":false,"telephone":false},"geometry":{"type":"Point","coordinates":[7.6581,51.9586]}},{"type":"Feature","properties":{"id":67,"address":"Westhoffstraße","location_desc":"Ecke Langebusch","recycling_type":"individual waste","object_type":"waste basket","hours":"all day, every day","shop_type":false,"telephone":false},"geometry":{"type":"Point","coordinates":[7.6003,51.9961]}},{"type":"Feature","properties":{"id":68,"address":"Meesenstiege","location_desc":"Hst. Franz-Berding-Weg (Richtung Hiltrup)","recycling_type":"individual waste","object_type":"waste basket","hours":"all day, every day","shop_type":false,"telephone":false},"geometry":{"type":"Point","coordinates":[7.6241,51.8998]}},{"type":"Feature","properties":{"id":69,"address":"Meesenstiege","location_desc":"Hst. Franz-Berding-Weg (Richtung Innenstadt)","recycling_type":"individual waste","object_type":"waste basket","hours":"all day, every day","shop_type":false,"telephone":false},"geometry":{"type":"Point","coordinates":[7.6244,51.8998]}},{"type":"Feature","properties":{"id":70,"address":"Idenbrockplatz","location_desc":"vor der Kirche","recycling_type":"individual waste","object_type":"waste basket","hours":"all day, every day","shop_type":false,"telephone":false},"geometry":{"type":"Point","coordinates":[7.6028,51.9957]}},{"type":"Feature","properties":{"id":71,"address":"Idenbrockplatz","location_desc":"auf dem Platz an den Bänken","recycling_type":"individual waste","object_type":"waste basket","hours":"all day, every day","shop_type":false,"telephone":false},"geometry":{"type":"Point","coordinates":[7.6019,51.9965]}},{"type":"Feature","properties":{"id":72,"address":"Von-Humboldt-Straße","location_desc":"Endhaltestelle Von-Humboldt-Straße","recycling_type":"individual waste","object_type":"waste basket","hours":"all day, every day","shop_type":false,"telephone":false},"geometry":{"type":"Point","coordinates":[7.6057,52.0009]}},{"type":"Feature","properties":{"id":73,"address":"Salzstraße","location_desc":"vor Hs Nr. 21a","recycling_type":"individual waste","object_type":"waste basket","hours":"all day, every day","shop_type":false,"telephone":false},"geometry":{"type":"Point","coordinates":[7.632,51.9614]}},{"type":"Feature","properties":{"id":74,"address":"Windthorststraße","location_desc":"in Grünfläche am Brunnen","recycling_type":"individual waste","object_type":"waste basket","hours":"all day, every day","shop_type":false,"telephone":false},"geometry":{"type":"Point","coordinates":[7.6309,51.9576]}},{"type":"Feature","properties":{"id":75,"address":"Westfalenstraße","location_desc":"Hst. Hiltrup Hallenbad (Richtung auswärts)","recycling_type":"individual waste","object_type":"waste basket","hours":"all day, every day","shop_type":false,"telephone":false},"geometry":{"type":"Point","coordinates":[7.6393,51.9009]}},{"type":"Feature","properties":{"id":76,"address":"Dieckmannstraßeheide","location_desc":"Hst. Rüschhausweg D","recycling_type":"individual waste","object_type":"waste basket","hours":"all day, every day","shop_type":false,"telephone":false},"geometry":{"type":"Point","coordinates":[7.5657,51.9728]}},{"type":"Feature","properties":{"id":77,"address":"Orléans-Ring","location_desc":"Hst. Apelstaedtstraße (Ri. Steinfurter Straße )","recycling_type":"individual waste","object_type":"waste basket","hours":"all day, every day","shop_type":false,"telephone":false},"geometry":{"type":"Point","coordinates":[7.6032,51.9693]}},{"type":"Feature","properties":{"id":78,"address":"Hogenbergstraße","location_desc":"Hst. Berg Fidel (Ri. Hogenbergstraße )","recycling_type":"individual waste","object_type":"waste basket","hours":"all day, every day","shop_type":false,"telephone":false},"geometry":{"type":"Point","coordinates":[7.6168,51.9252]}},{"type":"Feature","properties":{"id":79,"address":"Cheruskerring","location_desc":"Hst. Cheruskerring C (Ri. Kanalstraße)","recycling_type":"individual waste","object_type":"waste basket","hours":"all day, every day","shop_type":false,"telephone":false},"geometry":{"type":"Point","coordinates":[7.6249,51.9745]}},{"type":"Feature","properties":{"id":80,"address":"Waldeyerstraße","location_desc":"Hst. Chirurgie (Ri. Ringe)","recycling_type":"individual waste","object_type":"waste basket","hours":"all day, every day","shop_type":false,"telephone":false},"geometry":{"type":"Point","coordinates":[7.5999,51.959]}},{"type":"Feature","properties":{"id":81,"address":"Waldeyerstraße","location_desc":"Hst. Chirurgie(Ri. Schmeddingstraße)","recycling_type":"individual waste","object_type":"waste basket","hours":"all day, every day","shop_type":false,"telephone":false},"geometry":{"type":"Point","coordinates":[7.5992,51.9591]}},{"type":"Feature","properties":{"id":82,"address":"Hülsebrockstraße","location_desc":"Hst. Glasuritstraße (Ri. Hst. An der Christuskirche )","recycling_type":"individual waste","object_type":"waste basket","hours":"all day, every day","shop_type":false,"telephone":false},"geometry":{"type":"Point","coordinates":[7.651,51.9057]}},{"type":"Feature","properties":{"id":83,"address":"Hülsebrockstraße","location_desc":"Hst. Glasuritstraße(Ri. Marktallee)","recycling_type":"individual waste","object_type":"waste basket","hours":"all day, every day","shop_type":false,"telephone":false},"geometry":{"type":"Point","coordinates":[7.6509,51.9056]}},{"type":"Feature","properties":{"id":84,"address":"Hogenbergstraße","location_desc":"Hst. Hogenbergstraße (Ri. Hst. Berg Fidel)","recycling_type":"individual waste","object_type":"waste basket","hours":"all day, every day","shop_type":false,"telephone":false},"geometry":{"type":"Point","coordinates":[7.6188,51.927]}},{"type":"Feature","properties":{"id":85,"address":"Hogenbergstraße","location_desc":"Hst. Hogenbergstraße (Ri. Hst. Sporthalle Berg Fidel )","recycling_type":"individual waste","object_type":"waste basket","hours":"all day, every day","shop_type":false,"telephone":false},"geometry":{"type":"Point","coordinates":[7.6187,51.9269]}},{"type":"Feature","properties":{"id":86,"address":"Kaiser-Wilhelm-Ring","location_desc":"Hst. Hohenzollernring C (Ri. Warendorfer Straße )","recycling_type":"individual waste","object_type":"waste basket","hours":"all day, every day","shop_type":false,"telephone":false},"geometry":{"type":"Point","coordinates":[7.6466,51.9643]}},{"type":"Feature","properties":{"id":87,"address":"Kaiser-Wilhelm-Ring","location_desc":"Hst. Hohenzollernring D (Ri. Bohlweg)","recycling_type":"individual waste","object_type":"waste basket","hours":"all day, every day","shop_type":false,"telephone":false},"geometry":{"type":"Point","coordinates":[7.6469,51.9644]}},{"type":"Feature","properties":{"id":88,"address":"Rishon-le-Zion-Ring","location_desc":"Hst. P+R Coesfelder Kreuz D (Ri. Kardinal-von-Galen-Ring)","recycling_type":"individual waste","object_type":"waste basket","hours":"all day, every day","shop_type":false,"telephone":false},"geometry":{"type":"Point","coordinates":[7.6014,51.9645]}},{"type":"Feature","properties":{"id":89,"address":"Niedersachsenring","location_desc":"Hst. Schleswigstraße (Ri. Bohlweg )","recycling_type":"individual waste","object_type":"waste basket","hours":"all day, every day","shop_type":false,"telephone":false},"geometry":{"type":"Point","coordinates":[7.6428,51.9697]}},{"type":"Feature","properties":{"id":90,"address":"Niedersachsenring","location_desc":"Hst. Schleswigstraße (Ri. Gartenstraße)","recycling_type":"individual waste","object_type":"waste basket","hours":"all day, every day","shop_type":false,"telephone":false},"geometry":{"type":"Point","coordinates":[7.6439,51.9693]}},{"type":"Feature","properties":{"id":91,"address":"Waldeyerstraße","location_desc":"Hst. Schlüterstraße (Ri. Ringe)","recycling_type":"individual waste","object_type":"waste basket","hours":"all day, every day","shop_type":false,"telephone":false},"geometry":{"type":"Point","coordinates":[7.5969,51.9582]}},{"type":"Feature","properties":{"id":92,"address":"Kaiser-Wilhelm-Ring","location_desc":"Hst. Villa ten Hompel (Ri. Warendorfer Straße)","recycling_type":"individual waste","object_type":"waste basket","hours":"all day, every day","shop_type":false,"telephone":false},"geometry":{"type":"Point","coordinates":[7.6457,51.9668]}},{"type":"Feature","properties":{"id":93,"address":"Kaiser-Wilhelm-Ring","location_desc":"Hst. Villa ten Hompel (Ri. Niedersachsenring)","recycling_type":"individual waste","object_type":"waste basket","hours":"all day, every day","shop_type":false,"telephone":false},"geometry":{"type":"Point","coordinates":[7.6462,51.9668]}},{"type":"Feature","properties":{"id":94,"address":"Wienburgstraße","location_desc":"Hst. Wienburgstraße (Ri. Bröderichweg )","recycling_type":"individual waste","object_type":"waste basket","hours":"all day, every day","shop_type":false,"telephone":false},"geometry":{"type":"Point","coordinates":[7.6212,51.9847]}},{"type":"Feature","properties":{"id":95,"address":"Cheruskerring","location_desc":"Hst. Langemarckstraße (Ri. Kanalstraße)","recycling_type":"individual waste","object_type":"waste basket","hours":"all day, every day","shop_type":false,"telephone":false},"geometry":{"type":"Point","coordinates":[7.6297,51.9736]}},{"type":"Feature","properties":{"id":96,"address":"Enschedeweg","location_desc":"vor Hs Nr. 3","recycling_type":"individual waste","object_type":"waste basket","hours":"all day, every day","shop_type":false,"telephone":false},"geometry":{"type":"Point","coordinates":[7.5786,51.9676]}},{"type":"Feature","properties":{"id":97,"address":"Albersloher Weg","location_desc":"vor Hs Nr. 443","recycling_type":"individual waste","object_type":"waste basket","hours":"all day, every day","shop_type":false,"telephone":false},"geometry":{"type":"Point","coordinates":[7.6684,51.928]}},{"type":"Feature","properties":{"id":98,"address":"Windthorststraße","location_desc":"auf Harsewinkelplatz neben Parkbank","recycling_type":"individual waste","object_type":"waste basket","hours":"all day, every day","shop_type":false,"telephone":false},"geometry":{"type":"Point","coordinates":[7.6286,51.9592]}},{"type":"Feature","properties":{"id":99,"address":"Am Berler Kamp","location_desc":"Verbindungsweg","recycling_type":"individual waste","object_type":"waste basket","hours":"all day, every day","shop_type":false,"telephone":false},"geometry":{"type":"Point","coordinates":[7.7237,51.9141]}},{"type":"Feature","properties":{"id":100,"address":"Am Berler Kamp","location_desc":"Verbindungsweg","recycling_type":"individual waste","object_type":"waste basket","hours":"all day, every day","shop_type":false,"telephone":false},"geometry":{"type":"Point","coordinates":[7.7229,51.9145]}},{"type":"Feature","properties":{"id":101,"address":"Am Berler Kamp","location_desc":"Verbindungsweg","recycling_type":"individual waste","object_type":"waste basket","hours":"all day, every day","shop_type":false,"telephone":false},"geometry":{"type":"Point","coordinates":[7.7222,51.9147]}},{"type":"Feature","properties":{"id":102,"address":"Am Berler Kamp","location_desc":"Verbindungsweg","recycling_type":"individual waste","object_type":"waste basket","hours":"all day, every day","shop_type":false,"telephone":false},"geometry":{"type":"Point","coordinates":[7.7219,51.9149]}},{"type":"Feature","properties":{"id":103,"address":"Am Berler Kamp","location_desc":"Verbindungsweg","recycling_type":"individual waste","object_type":"waste basket","hours":"all day, every day","shop_type":false,"telephone":false},"geometry":{"type":"Point","coordinates":[7.7211,51.9151]}},{"type":"Feature","properties":{"id":104,"address":"Loerstraße","location_desc":"im Clemensgarten","recycling_type":"individual waste","object_type":"waste basket","hours":"all day, every day","shop_type":false,"telephone":false},"geometry":{"type":"Point","coordinates":[7.6307,51.9606]}},{"type":"Feature","properties":{"id":105,"address":"Sprickmannplatz","location_desc":"auf Sprickmannplatz 4 Stück","recycling_type":"individual waste","object_type":"waste basket","hours":"all day, every day","shop_type":false,"telephone":false},"geometry":{"type":"Point","coordinates":[7.5948,51.999]}},{"type":"Feature","properties":{"id":106,"address":"Roxeler Straße","location_desc":"Hst. Dieckmannstraße A","recycling_type":"individual waste","object_type":"waste basket","hours":"all day, every day","shop_type":false,"telephone":false},"geometry":{"type":"Point","coordinates":[7.5736,51.9578]}},{"type":"Feature","properties":{"id":107,"address":"Roxeler Straße","location_desc":"Hst. Dieckmannstraße B","recycling_type":"individual waste","object_type":"waste basket","hours":"all day, every day","shop_type":false,"telephone":false},"geometry":{"type":"Point","coordinates":[7.572,51.9574]}},{"type":"Feature","properties":{"id":108,"address":"Roxeler Straße","location_desc":"Hst. Gievenbeck Kaserne (Richtung Roxel)","recycling_type":"individual waste","object_type":"waste basket","hours":"all day, every day","shop_type":false,"telephone":false},"geometry":{"type":"Point","coordinates":[7.5753,51.9588]}},{"type":"Feature","properties":{"id":109,"address":"Roxeler Straße","location_desc":"Hst. Gievenbeck Kaserne (Ri. Von-Esmarch-Str.)","recycling_type":"individual waste","object_type":"waste basket","hours":"all day, every day","shop_type":false,"telephone":false},"geometry":{"type":"Point","coordinates":[7.5763,51.959]}},{"type":"Feature","properties":{"id":110,"address":"Albersloher Weg","location_desc":"Hst. P+R Nieberdingstraße (Richtung Hiltruper Str.)","recycling_type":"individual waste","object_type":"waste basket","hours":"all day, every day","shop_type":false,"telephone":false},"geometry":{"type":"Point","coordinates":[7.6451,51.9454]}},{"type":"Feature","properties":{"id":112,"address":"Schifffahrter Damm","location_desc":"Hst. Schleuse (Richtung Saarstraße)","recycling_type":"individual waste","object_type":"waste basket","hours":"all day, every day","shop_type":false,"telephone":false},"geometry":{"type":"Point","coordinates":[7.6582,51.9758]}},{"type":"Feature","properties":{"id":114,"address":"Mindener Straße","location_desc":"Ecke Durchgang Taubenstraße","recycling_type":"individual waste","object_type":"waste basket","hours":"all day, every day","shop_type":false,"telephone":false},"geometry":{"type":"Point","coordinates":[7.6502,51.9563]}},{"type":"Feature","properties":{"id":116,"address":"Promenade","location_desc":"Nähe Ecke Kanalstraße","recycling_type":"individual waste","object_type":"waste basket","hours":"all day, every day","shop_type":false,"telephone":false},"geometry":{"type":"Point","coordinates":[7.6296,51.9678]}},{"type":"Feature","properties":{"id":117,"address":"Münzstraße","location_desc":"gegenüb. Hs Nr. 19 zur Promenade","recycling_type":"individual waste","object_type":"waste basket","hours":"all day, every day","shop_type":false,"telephone":false},"geometry":{"type":"Point","coordinates":[7.6223,51.9665]}},{"type":"Feature","properties":{"id":118,"address":"Idenbrockplatz","location_desc":"an Telefonzelle auf Parkplatz","recycling_type":"individual waste","object_type":"waste basket","hours":"all day, every day","shop_type":false,"telephone":false},"geometry":{"type":"Point","coordinates":[7.6031,51.9951]}},{"type":"Feature","properties":{"id":119,"address":"Hammer Straße","location_desc":"Ecke Bernhardstraße","recycling_type":"individual waste","object_type":"waste basket","hours":"all day, every day","shop_type":false,"telephone":false},"geometry":{"type":"Point","coordinates":[7.6256,51.9525]}},{"type":"Feature","properties":{"id":120,"address":"Hammer Straße","location_desc":"Hst. Preußenstadion A","recycling_type":"individual waste","object_type":"waste basket","hours":"all day, every day","shop_type":false,"telephone":false},"geometry":{"type":"Point","coordinates":[7.6266,51.9325]}},{"type":"Feature","properties":{"id":121,"address":"Hammer Straße","location_desc":"Hst. Düesbergweg (Richtung Hiltrup)","recycling_type":"individual waste","object_type":"waste basket","hours":"all day, every day","shop_type":false,"telephone":false},"geometry":{"type":"Point","coordinates":[7.6254,51.9351]}},{"type":"Feature","properties":{"id":122,"address":"Hammer Straße","location_desc":"vor Hs Nr. 109","recycling_type":"individual waste","object_type":"waste basket","hours":"all day, every day","shop_type":false,"telephone":false},"geometry":{"type":"Point","coordinates":[7.6236,51.9465]}},{"type":"Feature","properties":{"id":123,"address":"Hammer Straße","location_desc":"Hst. Alter Schützenhof A","recycling_type":"individual waste","object_type":"waste basket","hours":"all day, every day","shop_type":false,"telephone":false},"geometry":{"type":"Point","coordinates":[7.6234,51.9464]}},{"type":"Feature","properties":{"id":124,"address":"Hammer Straße","location_desc":"Hst. Alter Schützenhof B","recycling_type":"individual waste","object_type":"waste basket","hours":"all day, every day","shop_type":false,"telephone":false},"geometry":{"type":"Point","coordinates":[7.6236,51.9463]}},{"type":"Feature","properties":{"id":125,"address":"Hammer Straße","location_desc":"vor Hs Nr. 118","recycling_type":"individual waste","object_type":"waste basket","hours":"all day, every day","shop_type":false,"telephone":false},"geometry":{"type":"Point","coordinates":[7.6234,51.9467]}},{"type":"Feature","properties":{"id":126,"address":"Hammer Straße","location_desc":"vor Hs Nr. 91 (REWE)","recycling_type":"individual waste","object_type":"waste basket","hours":"all day, every day","shop_type":false,"telephone":false},"geometry":{"type":"Point","coordinates":[7.6241,51.9478]}},{"type":"Feature","properties":{"id":128,"address":"Promenade","recycling_type":"individual waste","object_type":"waste basket","hours":"all day, every day","shop_type":false,"telephone":false},"geometry":{"type":"Point","coordinates":[7.6163,51.9661]}},{"type":"Feature","properties":{"id":129,"address":"Promenade","recycling_type":"individual waste","object_type":"waste basket","hours":"all day, every day","shop_type":false,"telephone":false},"geometry":{"type":"Point","coordinates":[7.6163,51.9658]}},{"type":"Feature","properties":{"id":130,"address":"Dorbaumstraße","location_desc":"Hst. Am Hornbach (Richtung Sudmühlenstraße)","recycling_type":"individual waste","object_type":"waste basket","hours":"all day, every day","shop_type":false,"telephone":false},"geometry":{"type":"Point","coordinates":[7.7098,52.003]}},{"type":"Feature","properties":{"id":131,"address":"An den Loddenbüschen","location_desc":"Hst. Gautzsch (Richtung Berg Fidel)","recycling_type":"individual waste","object_type":"waste basket","hours":"all day, every day","shop_type":false,"telephone":false},"geometry":{"type":"Point","coordinates":[7.6462,51.9284]}},{"type":"Feature","properties":{"id":132,"address":"Feldstiegenkamp","location_desc":"vor Kindertagesstätte","recycling_type":"individual waste","object_type":"waste basket","hours":"all day, every day","shop_type":false,"telephone":false},"geometry":{"type":"Point","coordinates":[7.6028,51.9976]}},{"type":"Feature","properties":{"id":133,"address":"Von-Steuben-Straße","location_desc":"Hst. Von-Steuben-Straße A","recycling_type":"individual waste","object_type":"waste basket","hours":"all day, every day","shop_type":false,"telephone":false},"geometry":{"type":"Point","coordinates":[7.6316,51.9544]}},{"type":"Feature","properties":{"id":134,"address":"Von-Steuben-Straße","location_desc":"Hst. Von-Steuben-Straße B","recycling_type":"individual waste","object_type":"waste basket","hours":"all day, every day","shop_type":false,"telephone":false},"geometry":{"type":"Point","coordinates":[7.6315,51.9544]}},{"type":"Feature","properties":{"id":135,"address":"Warendorfer Straße","location_desc":"Hst. Emsstraße (Richtung Innenstadt)","recycling_type":"individual waste","object_type":"waste basket","hours":"all day, every day","shop_type":false,"telephone":false},"geometry":{"type":"Point","coordinates":[7.6617,51.968]}},{"type":"Feature","properties":{"id":137,"address":"Wolbecker Straße","location_desc":"Hst. Lohausweg (Richtung Innenstadt)","recycling_type":"individual waste","object_type":"waste basket","hours":"all day, every day","shop_type":false,"telephone":false},"geometry":{"type":"Point","coordinates":[7.6601,51.954]}},{"type":"Feature","properties":{"id":138,"address":"Wolbecker Straße","location_desc":"Hst. Lohausweg (Richtung Wolbeck)","recycling_type":"individual waste","object_type":"waste basket","hours":"all day, every day","shop_type":false,"telephone":false},"geometry":{"type":"Point","coordinates":[7.6599,51.954]}},{"type":"Feature","properties":{"id":141,"address":"Kanalstraße","location_desc":"Hst. Kanalstraße (Richtung Lublinring)","recycling_type":"individual waste","object_type":"waste basket","hours":"all day, every day","shop_type":false,"telephone":false},"geometry":{"type":"Point","coordinates":[7.6326,51.9721]}},{"type":"Feature","properties":{"id":143,"address":"Gelmerheide","location_desc":"Hst. Gelmerheide (Ri. Alfersheide)","recycling_type":"individual waste","object_type":"waste basket","hours":"all day, every day","shop_type":false,"telephone":false},"geometry":{"type":"Point","coordinates":[7.6733,52.0294]}},{"type":"Feature","properties":{"id":144,"address":"Königsberger Straße","location_desc":"Hst. Königsberger Straße C","recycling_type":"individual waste","object_type":"waste basket","hours":"all day, every day","shop_type":false,"telephone":false},"geometry":{"type":"Point","coordinates":[7.6472,51.993]}},{"type":"Feature","properties":{"id":146,"address":"Roxeler Straße","location_desc":"Hst. Ackermann (Richtung Roxel)","recycling_type":"individual waste","object_type":"waste basket","hours":"all day, every day","shop_type":false,"telephone":false},"geometry":{"type":"Point","coordinates":[7.5527,51.9527]}},{"type":"Feature","properties":{"id":147,"address":"Roxeler Straße","location_desc":"Hst. Ackermann (Richtung Münster)","recycling_type":"individual waste","object_type":"waste basket","hours":"all day, every day","shop_type":false,"telephone":false},"geometry":{"type":"Point","coordinates":[7.5519,51.9527]}},{"type":"Feature","properties":{"id":148,"address":"Hohe Geest","location_desc":"Hst. Im Dahl (Richtung Innenstadt)","recycling_type":"individual waste","object_type":"waste basket","hours":"all day, every day","shop_type":false,"telephone":false},"geometry":{"type":"Point","coordinates":[7.6361,51.9138]}},{"type":"Feature","properties":{"id":149,"address":"Hohe Geest","location_desc":"Hst. Im Dahl (Richtung Marktallee)","recycling_type":"individual waste","object_type":"waste basket","hours":"all day, every day","shop_type":false,"telephone":false},"geometry":{"type":"Point","coordinates":[7.6361,51.9133]}},{"type":"Feature","properties":{"id":150,"address":"Hofstraße","location_desc":"vor Hs Nr. 2","recycling_type":"individual waste","object_type":"waste basket","hours":"all day, every day","shop_type":false,"telephone":false},"geometry":{"type":"Point","coordinates":[7.7284,51.9169]}},{"type":"Feature","properties":{"id":151,"address":"Am Steintor","location_desc":"am Friedhofseingang","recycling_type":"individual waste","object_type":"waste basket","hours":"all day, every day","shop_type":false,"telephone":false},"geometry":{"type":"Point","coordinates":[7.7276,51.916]}},{"type":"Feature","properties":{"id":152,"address":"Hofstraße","location_desc":"Hst. Kurhaus (Richtung Alverskirchen)","recycling_type":"individual waste","object_type":"waste basket","hours":"all day, every day","shop_type":false,"telephone":false},"geometry":{"type":"Point","coordinates":[7.7332,51.9166]}},{"type":"Feature","properties":{"id":153,"address":"Dorbaumstraße","location_desc":"Hst. Hornheide (Betriebshaltestelle)","recycling_type":"individual waste","object_type":"waste basket","hours":"all day, every day","shop_type":false,"telephone":false},"geometry":{"type":"Point","coordinates":[7.7067,52.0113]}},{"type":"Feature","properties":{"id":154,"address":"Lützowstraße","location_desc":"Hst. Handorf Kaserne","recycling_type":"individual waste","object_type":"waste basket","hours":"all day, every day","shop_type":false,"telephone":false},"geometry":{"type":"Point","coordinates":[7.7219,52.0022]}},{"type":"Feature","properties":{"id":155,"address":"Gartenstraße","location_desc":"Haltepunkt Zentrum Nord","recycling_type":"individual waste","object_type":"waste basket","hours":"all day, every day","shop_type":false,"telephone":false},"geometry":{"type":"Point","coordinates":[7.6379,51.9843]}},{"type":"Feature","properties":{"id":156,"address":"Coerheide","location_desc":"Hst. Coerde A","recycling_type":"individual waste","object_type":"waste basket","hours":"all day, every day","shop_type":false,"telephone":false},"geometry":{"type":"Point","coordinates":[7.6403,51.995]}},{"type":"Feature","properties":{"id":157,"address":"Meesenstiege","location_desc":"Hst. Meesenstiege (Richtung Amelsbürener Str.)","recycling_type":"individual waste","object_type":"waste basket","hours":"all day, every day","shop_type":false,"telephone":false},