{"type":"FeatureCollection","features":[{"type":"Feature","properties":{"id":1,"address":"Westerheide","location_desc":"vor Schule","recycling_type":"glass","object_type":"container"},"geometry":{"type":"Point","coordinates":[7.676,52.0285]}},{"type":"Feature","properties":{"id":8,"address":"Von-Esmarch-Straße","location_desc":"Hst. Schreiberstraße (Ri. Busso-Peus-Straße)","recycling_type":"individual waste","object_type":"waste basket","hours":"all day, every day","shop_type":false,"telephone":false},"geometry":{"type":"Point","coordinates":[7.5951,51.9651]}},{"type":"Feature","properties":{"id":7,"address":"FALSE","location_desc":"FALSE","recycling_type":"clothes","object_type":"container","name":"FALSE","hours":"all day, every day","shop_type":false,"telephone":false},"geometry":{"type":"Point","coordinates":[7.6329,51.9726]}},{"type":"Feature","properties":{"id":1,"address":"FALSE","location_desc":"Skagerrakstraße gegenüber Ska-Treff, Skagerrakstraße","recycling_type":"FALSE","object_type":"Givebox","description":"FALSE","website":"https://hvghirten.jimdofree.com/-/sozialraumaktivit%C3%A4ten/ska-treff/","name":"Danziger Freiheit","hours":"immer","shop_type":false,"telephone":false},"geometry":{"type":"Point","coordinates":[7.6583,51.967]}},{"type":"Feature","properties":{"id":5,"address":"FALSE","location_desc":"Auf dem Parkplatz der Freikirche der Siebenten-Tags-Adventisten, Horstmarer Landweg 96, 48149 Münster","recycling_type":"FALSE","object_type":"Givebox","description":"FALSE","website":"https://muenster.adventist.eu/give-box","name":"HoMaLa","hours":"immer","shop_type":false,"telephone":false},"geometry":{"type":"Point","coordinates":[7.5955,51.9721]}},{"type":"Feature","properties":{"id":10,"address":"FALSE","location_desc":"Multifunktionshaus von Blau-Weiß Aasee, Bonhoefferstraße 54, 48151 Münster","recycling_type":"FALSE","object_type":"Öffentliches Bücherregal","description":"FALSE","website":"http://wiki.muenster.org/index.php/Öffentliche_Bücherregale_in_Münster","name":"Blau-Weiß Aasee","shop_type":false,"telephone":false},"geometry":{"type":"Point","coordinates":[7.6039,51.9406]}}]}