{"type":"FeatureCollection","features":[{"type":"Feature","properties":{"id":1,"address":"Westerheide","location_desc":"vor Schule","recycling_type":"glass","object_type":"container","description":"FALSE","website":"FALSE","name":"FALSE","hours":"FALSE","telephone":"FALSE"},"geometry":{"type":"Point","coordinates":[7.676,52.0285]}},{"type":"Feature","properties":{"id":2,"address":"Horstmarer Landweg","location_desc":"Ecke Philippistraße","recycling_type":"glass","object_type":"container","description":"FALSE","website":"FALSE","name":"FALSE","hours":"FALSE","telephone":"FALSE"},"geometry":{"type":"Point","coordinates":[7.6025,51.9701]}},{"type":"Feature","properties":{"id":3,"address":"Brüningheide","location_desc":"bei Hst. Meinertzstraße","recycling_type":"glass","object_type":"container","description":"FALSE","website":"FALSE","name":"FALSE","hours":"FALSE","telephone":"FALSE"},"geometry":{"type":"Point","coordinates":[7.5951,52.0004]}},{"type":"Feature","properties":{"id":4,"address":"Schmeddingstraße","location_desc":"gegenüber Hst. Schmeddingstraße A","recycling_type":"glass","object_type":"container","description":"FALSE","website":"FALSE","name":"FALSE","hours":"FALSE","telephone":"FALSE"},"geometry":{"type":"Point","coordinates":[7.5898,51.9608]}},{"type":"Feature","properties":{"id":5,"address":"Helene-Weigel-Weg","location_desc":"hinter Parkplatz EKZ","recycling_type":"glass","object_type":"container","description":"FALSE","website":"FALSE","name":"FALSE","hours":"FALSE","telephone":"FALSE"},"geometry":{"type":"Point","coordinates":[7.6239,51.9019]}},{"type":"Feature","properties":{"id":6,"address":"Westhoffstraße","location_desc":"vor REWE","recycling_type":"glass","object_type":"container","description":"FALSE","website":"FALSE","name":"FALSE","hours":"FALSE","telephone":"FALSE"},"geometry":{"type":"Point","coordinates":[7.5991,51.9929]}},{"type":"Feature","properties":{"id":7,"address":"Von-Esmarch-Straße","location_desc":"gegenüber Hs Nr. 159","recycling_type":"glass","object_type":"container","description":"FALSE","website":"FALSE","name":"FALSE","hours":"FALSE","telephone":"FALSE"},"geometry":{"type":"Point","coordinates":[7.582,51.9664]}},{"type":"Feature","properties":{"id":8,"address":"Scharnhorststraße","location_desc":"Ecke Hoppendamm","recycling_type":"glass","object_type":"container","description":"FALSE","website":"FALSE","name":"FALSE","hours":"FALSE","telephone":"FALSE"},"geometry":{"type":"Point","coordinates":[7.6143,51.9532]}},{"type":"Feature","properties":{"id":9,"address":"Marktallee","location_desc":"Zufahrt zum Bahnhof","recycling_type":"glass","object_type":"container","description":"FALSE","website":"FALSE","name":"FALSE","hours":"FALSE","telephone":"FALSE"},"geometry":{"type":"Point","coordinates":[7.6516,51.9046]}},{"type":"Feature","properties":{"id":10,"address":"Münzstraße","location_desc":"Kalkmarkt (Parkplatz)","recycling_type":"glass","object_type":"container","description":"FALSE","website":"FALSE","name":"FALSE","hours":"FALSE","telephone":"FALSE"},"geometry":{"type":"Point","coordinates":[7.6177,51.9667]}},{"type":"Feature","properties":{"id":11,"address":"An der Meerwiese","location_desc":"bei Hs Nr. 17, Parkplatz Viva West","recycling_type":"glass","object_type":"container","description":"FALSE","website":"FALSE","name":"FALSE","hours":"FALSE","telephone":"FALSE"},"geometry":{"type":"Point","coordinates":[7.6492,51.9877]}},{"type":"Feature","properties":{"id":12,"address":"August-Schepers-Straße","location_desc":"vor der Kanalbrücke","recycling_type":"glass","object_type":"container","description":"FALSE","website":"FALSE","name":"FALSE","hours":"FALSE","telephone":"FALSE"},"geometry":{"type":"Point","coordinates":[7.6551,51.9539]}},{"type":"Feature","properties":{"id":13,"address":"Zum Guten Hirten","location_desc":"vor der Kanalbrücke","recycling_type":"glass","object_type":"container","description":"FALSE","website":"FALSE","name":"FALSE","hours":"FALSE","telephone":"FALSE"},"geometry":{"type":"Point","coordinates":[7.664,51.9628]}},{"type":"Feature","properties":{"id":14,"address":"Dreizehnerstraße","location_desc":"Ecke Grevener Straße","recycling_type":"glass","object_type":"container","description":"FALSE","website":"FALSE","name":"FALSE","hours":"FALSE","telephone":"FALSE"},"geometry":{"type":"Point","coordinates":[7.6111,51.9837]}},{"type":"Feature","properties":{"id":15,"address":"Kanalstraße","location_desc":"Einfahrt Schlachthaus","recycling_type":"glass","object_type":"container","description":"FALSE","website":"FALSE","name":"FALSE","hours":"FALSE","telephone":"FALSE"},"geometry":{"type":"Point","coordinates":[7.6328,51.9725]}},{"type":"Feature","properties":{"id":16,"address":"Königsberger Straße","location_desc":"Hamannplatz, Einfahrt Parkplatz am EKZ","recycling_type":"glass","object_type":"container","description":"FALSE","website":"FALSE","name":"FALSE","hours":"FALSE","telephone":"FALSE"},"geometry":{"type":"Point","coordinates":[7.6469,51.993]}},{"type":"Feature","properties":{"id":17,"address":"Nienberger Straße","location_desc":"Straßenrand Grünfläche","recycling_type":"glass","object_type":"container","description":"FALSE","website":"FALSE","name":"FALSE","hours":"FALSE","telephone":"FALSE"},"geometry":{"type":"Point","coordinates":[7.6153,52.0418]}},{"type":"Feature","properties":{"id":18,"address":"Sprakeler Straße","location_desc":"Bahnhof Sprakel1 Altkleidercontainer AWO","recycling_type":"glass","object_type":"container","description":"FALSE","website":"FALSE","name":"FALSE","hours":"FALSE","telephone":"FALSE"},"geometry":{"type":"Point","coordinates":[7.6193,52.0421]}},{"type":"Feature","properties":{"id":19,"address":"Schmitthausweg","location_desc":"Ecke Hansellerstraße","recycling_type":"glass","object_type":"container","description":"FALSE","website":"FALSE","name":"FALSE","hours":"FALSE","telephone":"FALSE"},"geometry":{"type":"Point","coordinates":[7.5614,52.0224]}},{"type":"Feature","properties":{"id":20,"address":"Feldstiege","location_desc":"Parkplatz Sportzentrum","recycling_type":"glass","object_type":"container","description":"FALSE","website":"FALSE","name":"FALSE","hours":"FALSE","telephone":"FALSE"},"geometry":{"type":"Point","coordinates":[7.5496,51.9998]}},{"type":"Feature","properties":{"id":21,"address":"Waltruper Weg","location_desc":"Ecke Von-Schonebeck-RingAltkleider Aktion Friedensdorf","recycling_type":"glass","object_type":"container","description":"FALSE","website":"FALSE","name":"FALSE","hours":"FALSE","telephone":"FALSE"},"geometry":{"type":"Point","coordinates":[7.5478,51.994]}},{"type":"Feature","properties":{"id":22,"address":"Hermann-Hesse-Straße","location_desc":"Ecke Hülshoffstraße","recycling_type":"glass","object_type":"container","description":"FALSE","website":"FALSE","name":"FALSE","hours":"FALSE","telephone":"FALSE"},"geometry":{"type":"Point","coordinates":[7.5533,51.9956]}},{"type":"Feature","properties":{"id":23,"address":"Plettendorfstraße","location_desc":"Ecke Kurneystraße","recycling_type":"glass","object_type":"container","description":"FALSE","website":"FALSE","name":"FALSE","hours":"FALSE","telephone":"FALSE"},"geometry":{"type":"Point","coordinates":[7.5563,51.9968]}},{"type":"Feature","properties":{"id":24,"address":"Am Baumberger Hof","location_desc":"Ecke Hägerstraße","recycling_type":"glass","object_type":"container","description":"FALSE","website":"FALSE","name":"FALSE","hours":"FALSE","telephone":"FALSE"},"geometry":{"type":"Point","coordinates":[7.5579,52.0015]}},{"type":"Feature","properties":{"id":25,"address":"Kirmstraße","location_desc":"gegenüber Hs Nr. 23, Parkboxen","recycling_type":"glass","object_type":"container","description":"FALSE","website":"FALSE","name":"FALSE","hours":"FALSE","telephone":"FALSE"},"geometry":{"type":"Point","coordinates":[7.5589,51.998]}},{"type":"Feature","properties":{"id":26,"address":"Zur Eckernheide","location_desc":"Parkplatz Sportplatz","recycling_type":"glass","object_type":"container","description":"FALSE","website":"FALSE","name":"FALSE","hours":"FALSE","telephone":"FALSE"},"geometry":{"type":"Point","coordinates":[7.6745,52.0259]}},{"type":"Feature","properties":{"id":27,"address":"An den Eichen","location_desc":"Parkstreifen","recycling_type":"glass","object_type":"container","description":"FALSE","website":"FALSE","name":"FALSE","hours":"FALSE","telephone":"FALSE"},"geometry":{"type":"Point","coordinates":[7.7159,52.0023]}},{"type":"Feature","properties":{"id":28,"address":"Dorbaumstraße","location_desc":"Parkplatz Getränkemarkt (Nähe Wacholderweg)","recycling_type":"glass","object_type":"container","description":"FALSE","website":"FALSE","name":"FALSE","hours":"FALSE","telephone":"FALSE"},"geometry":{"type":"Point","coordinates":[7.7099,52.0014]}},{"type":"Feature","properties":{"id":29,"address":"Lützowstraße","location_desc":"gegenüber Haus Münsterland","recycling_type":"glass","object_type":"container","description":"FALSE","website":"FALSE","name":"FALSE","hours":"FALSE","telephone":"FALSE"},"geometry":{"type":"Point","coordinates":[7.7165,51.9991]}},{"type":"Feature","properties":{"id":30,"address":"Kirschgarten","location_desc":"Grünstreifen/Parkplatz Sportplatz","recycling_type":"glass","object_type":"container","description":"FALSE","website":"FALSE","name":"FALSE","hours":"FALSE","telephone":"FALSE"},"geometry":{"type":"Point","coordinates":[7.7091,51.9874]}},{"type":"Feature","properties":{"id":31,"address":"Heriburgstraße","location_desc":"Parkplatz Hallenbad1 mal AK CAJ e.V.","recycling_type":"glass","object_type":"container","description":"FALSE","website":"FALSE","name":"FALSE","hours":"FALSE","telephone":"FALSE"},"geometry":{"type":"Point","coordinates":[7.7056,51.9896]}},{"type":"Feature","properties":{"id":32,"address":"Hugo-Pottebaum-Platz","location_desc":"Parkplatz","recycling_type":"glass","object_type":"container","description":"FALSE","website":"FALSE","name":"FALSE","hours":"FALSE","telephone":"FALSE"},"geometry":{"type":"Point","coordinates":[7.6977,51.9876]}},{"type":"Feature","properties":{"id":33,"address":"Sudmühlenstraße","location_desc":"Ecke Havichhorster Mühle1 mal AK CAJ e.V.","recycling_type":"glass","object_type":"container","description":"FALSE","website":"FALSE","name":"FALSE","hours":"FALSE","telephone":"FALSE"},"geometry":{"type":"Point","coordinates":[7.6812,51.9971]}},{"type":"Feature","properties":{"id":34,"address":"An der Kleimannbrücke","location_desc":"vor Hs Nr. 25","recycling_type":"glass","object_type":"container","description":"FALSE","website":"FALSE","name":"FALSE","hours":"FALSE","telephone":"FALSE"},"geometry":{"type":"Point","coordinates":[7.6606,51.991]}},{"type":"Feature","properties":{"id":35,"address":"Hobbeltstraße","location_desc":"Nähe Handorfer Straße, Randstreifen","recycling_type":"glass","object_type":"container","description":"FALSE","website":"FALSE","name":"FALSE","hours":"FALSE","telephone":"FALSE"},"geometry":{"type":"Point","coordinates":[7.7044,51.9817]}},{"type":"Feature","properties":{"id":36,"address":"Mariendorfer Straße","location_desc":"neben Hst. Mariendorf West (Ri. Dyckburgstraße)","recycling_type":"glass","object_type":"container","description":"FALSE","website":"FALSE","name":"FALSE","hours":"FALSE","telephone":"FALSE"},"geometry":{"type":"Point","coordinates":[7.6686,51.9874]}},{"type":"Feature","properties":{"id":37,"address":"Bispinghof","location_desc":"Ecke Universitätsstraße","recycling_type":"glass","object_type":"container","description":"FALSE","website":"FALSE","name":"FALSE","hours":"FALSE","telephone":"FALSE"},"geometry":{"type":"Point","coordinates":[7.6203,51.9607]}},{"type":"Feature","properties":{"id":38,"address":"Görlitzer Straße","location_desc":"zwischen Hs Nr. 34-58, gegenüber 45-53","recycling_type":"glass","object_type":"container","description":"FALSE","website":"FALSE","name":"FALSE","hours":"FALSE","telephone":"FALSE"},"geometry":{"type":"Point","coordinates":[7.6427,51.9917]}},{"type":"Feature","properties":{"id":39,"address":"Mühlenstraße","location_desc":"Ecke Am Stadtgraben","recycling_type":"glass","object_type":"container","description":"FALSE","website":"FALSE","name":"FALSE","hours":"FALSE","telephone":"FALSE"},"geometry":{"type":"Point","coordinates":[7.6198,51.9588]}},{"type":"Feature","properties":{"id":40,"address":"Schneidemühler Straße","location_desc":"Garagenbereich bei Hs Nr.5, Straßenrand","recycling_type":"glass","object_type":"container","description":"FALSE","website":"FALSE","name":"FALSE","hours":"FALSE","telephone":"FALSE"},"geometry":{"type":"Point","coordinates":[7.65,51.9937]}},{"type":"Feature","properties":{"id":41,"address":"Südstraße","location_desc":"Ecke Hafenstraße, Parkplatz","recycling_type":"glass","object_type":"container","description":"FALSE","website":"FALSE","name":"FALSE","hours":"FALSE","telephone":"FALSE"},"geometry":{"type":"Point","coordinates":[7.6277,51.955]}},{"type":"Feature","properties":{"id":42,"address":"Dachsleite","location_desc":"Ecke Marienburgstraße","recycling_type":"glass","object_type":"container","description":"FALSE","website":"FALSE","name":"FALSE","hours":"FALSE","telephone":"FALSE"},"geometry":{"type":"Point","coordinates":[7.6489,51.9975]}},{"type":"Feature","properties":{"id":43,"address":"Nerzweg","location_desc":"zwischen Hs Nr. 26 und Hs Nr. 32","recycling_type":"glass","object_type":"container","description":"FALSE","website":"FALSE","name":"FALSE","hours":"FALSE","telephone":"FALSE"},"geometry":{"type":"Point","coordinates":[7.6406,51.9991]}},{"type":"Feature","properties":{"id":44,"address":"Holtmannsweg","location_desc":"gegenüber Eichhornweg","recycling_type":"glass","object_type":"container","description":"FALSE","website":"FALSE","name":"FALSE","hours":"FALSE","telephone":"FALSE"},"geometry":{"type":"Point","coordinates":[7.6376,51.9947]}},{"type":"Feature","properties":{"id":45,"address":"Nevinghoff","location_desc":"vor Arbeitsamt","recycling_type":"glass","object_type":"container","description":"FALSE","website":"FALSE","name":"FALSE","hours":"FALSE","telephone":"FALSE"},"geometry":{"type":"Point","coordinates":[7.6333,51.9843]}},{"type":"Feature","properties":{"id":46,"address":"Friedrich-Ebert-Straße","location_desc":"vor Finanzamt Außenstadt","recycling_type":"glass","object_type":"container","description":"FALSE","website":"FALSE","name":"FALSE","hours":"FALSE","telephone":"FALSE"},"geometry":{"type":"Point","coordinates":[7.6317,51.9505]}},{"type":"Feature","properties":{"id":47,"address":"Schlossplatz","location_desc":"gegenüber Bäckergasse","recycling_type":"glass","object_type":"container","description":"FALSE","website":"FALSE","name":"FALSE","hours":"FALSE","telephone":"FALSE"},"geometry":{"type":"Point","coordinates":[7.6177,51.9632]}},{"type":"Feature","properties":{"id":48,"address":"Kolde-Ring","location_desc":"gegenüber LVM","recycling_type":"glass","object_type":"container","description":"FALSE","website":"FALSE","name":"FALSE","hours":"FALSE","telephone":"FALSE"},"geometry":{"type":"Point","coordinates":[7.6129,51.9497]}},{"type":"Feature","properties":{"id":49,"address":"Hüfferstraße","location_desc":"? gegenüb. Hs Nr. 50, Möserweg","recycling_type":"glass","object_type":"container","description":"FALSE","website":"FALSE","name":"FALSE","hours":"FALSE","telephone":"FALSE"},"geometry":{"type":"Point","coordinates":[7.6057,51.9608]}},{"type":"Feature","properties":{"id":50,"address":"Grevener Straße","location_desc":"am Taxistand","recycling_type":"glass","object_type":"container","description":"FALSE","website":"FALSE","name":"FALSE","hours":"FALSE","telephone":"FALSE"},"geometry":{"type":"Point","coordinates":[7.613,51.9953]}},{"type":"Feature","properties":{"id":51,"address":"Rektoratsweg","location_desc":"Ecke Im Moorhock","recycling_type":"glass","object_type":"container","description":"FALSE","website":"FALSE","name":"FALSE","hours":"FALSE","telephone":"FALSE"},"geometry":{"type":"Point","coordinates":[7.6079,51.9872]}},{"type":"Feature","properties":{"id":52,"address":"Brüningheide","location_desc":"vor Hs Nr. 111-121","recycling_type":"glass","object_type":"container","description":"FALSE","website":"FALSE","name":"FALSE","hours":"FALSE","telephone":"FALSE"},"geometry":{"type":"Point","coordinates":[7.5926,52.0008]}},{"type":"Feature","properties":{"id":53,"address":"Josef-Beckmann-Straße","location_desc":"Ecke Kristiansandstraße","recycling_type":"glass","object_type":"container","description":"FALSE","website":"FALSE","name":"FALSE","hours":"FALSE","telephone":"FALSE"},"geometry":{"type":"Point","coordinates":[7.5986,51.9974]}},{"type":"Feature","properties":{"id":54,"address":"Josef-Beckmann-Straße","location_desc":"Ecke Sprinckmannstraße","recycling_type":"glass","object_type":"container","description":"FALSE","website":"FALSE","name":"FALSE","hours":"FALSE","telephone":"FALSE"},"geometry":{"type":"Point","coordinates":[7.5971,51.9974]}},{"type":"Feature","properties":{"id":55,"address":"Westhoffstraße","location_desc":"Parkplatz REWE","recycling_type":"glass","object_type":"container","description":"FALSE","website":"FALSE","name":"FALSE","hours":"FALSE","telephone":"FALSE"},"geometry":{"type":"Point","coordinates":[7.5992,51.9935]}},{"type":"Feature","properties":{"id":56,"address":"Hoher Heckenweg","location_desc":"gegenüber Hs Nr. 168","recycling_type":"glass","object_type":"container","description":"FALSE","website":"FALSE","name":"FALSE","hours":"FALSE","telephone":"FALSE"},"geometry":{"type":"Point","coordinates":[7.6458,51.9824]}},{"type":"Feature","properties":{"id":57,"address":"Schifffahrter Damm","location_desc":"vor Hs Nr. 82","recycling_type":"glass","object_type":"container","description":"FALSE","website":"FALSE","name":"FALSE","hours":"FALSE","telephone":"FALSE"},"geometry":{"type":"Point","coordinates":[7.6569,51.9712]}},{"type":"Feature","properties":{"id":58,"address":"Von-Humboldt-Straße","location_desc":"Einfahrt zur Schule, gegenüber Hs Nr. 9","recycling_type":"glass","object_type":"container","description":"FALSE","website":"FALSE","name":"FALSE","hours":"FALSE","telephone":"FALSE"},"geometry":{"type":"Point","coordinates":[7.6035,51.9977]}},{"type":"Feature","properties":{"id":59,"address":"Sankt-Josefs-Kirchplatz","location_desc":"Papier vor Post","recycling_type":"glass","object_type":"container","description":"FALSE","website":"FALSE","name":"FALSE","hours":"FALSE","telephone":"FALSE"},"geometry":{"type":"Point","coordinates":[7.6254,51.9497]}},{"type":"Feature","properties":{"id":60,"address":"Norbertstraße","location_desc":"Hermannstraßeunterirdisch","recycling_type":"glass","object_type":"container","description":"FALSE","website":"FALSE","name":"FALSE","hours":"FALSE","telephone":"FALSE"},"geometry":{"type":"Point","coordinates":[7.6228,51.9535]}},{"type":"Feature","properties":{"id":61,"address":"Geiststraße","location_desc":"schräg gegenüber Goebenstraße","recycling_type":"glass","object_type":"container","description":"FALSE","website":"FALSE","name":"FALSE","hours":"FALSE","telephone":"FALSE"},"geometry":{"type":"Point","coordinates":[7.6206,51.9517]}},{"type":"Feature","properties":{"id":62,"address":"Goldstraße","location_desc":"Niedersachsen Ring","recycling_type":"glass","object_type":"container","description":"FALSE","website":"FALSE","name":"FALSE","hours":"FALSE","telephone":"FALSE"},"geometry":{"type":"Point","coordinates":[7.6405,51.971]}},{"type":"Feature","properties":{"id":63,"address":"Gartenstraße","location_desc":"Hst. LVA Westfalen","recycling_type":"glass","object_type":"container","description":"FALSE","website":"FALSE","name":"FALSE","hours":"FALSE","telephone":"FALSE"},"geometry":{"type":"Point","coordinates":[7.6361,51.9761]}},{"type":"Feature","properties":{"id":64,"address":"Stettiner Straße","location_desc":"vor Hs Nr. 64-66","recycling_type":"glass","object_type":"container","description":"FALSE","website":"FALSE","name":"FALSE","hours":"FALSE","telephone":"FALSE"},"geometry":{"type":"Point","coordinates":[7.6466,51.9759]}},{"type":"Feature","properties":{"id":65,"address":"Kerstingskamp","location_desc":"vor Hs Nr. 24","recycling_type":"glass","object_type":"container","description":"FALSE","website":"FALSE","name":"FALSE","hours":"FALSE","telephone":"FALSE"},"geometry":{"type":"Point","coordinates":[7.6095,51.9883]}},{"type":"Feature","properties":{"id":66,"address":"Cloppenburgstraße","location_desc":"Ecke Pötterhoek","recycling_type":"glass","object_type":"container","description":"FALSE","website":"FALSE","name":"FALSE","hours":"FALSE","telephone":"FALSE"},"geometry":{"type":"Point","coordinates":[7.6537,51.9723]}},{"type":"Feature","properties":{"id":67,"address":"Hittorfstraße","location_desc":"Ecke Einsteinstraße","recycling_type":"glass","object_type":"container","description":"FALSE","website":"FALSE","name":"FALSE","hours":"FALSE","telephone":"FALSE"},"geometry":{"type":"Point","coordinates":[7.604,51.9655]}},{"type":"Feature","properties":{"id":68,"address":"Delpstraße","location_desc":"Taxistand, gegenüber Edeka","recycling_type":"glass","object_type":"container","description":"FALSE","website":"FALSE","name":"FALSE","hours":"FALSE","telephone":"FALSE"},"geometry":{"type":"Point","coordinates":[7.6076,51.9478]}},{"type":"Feature","properties":{"id":69,"address":"Dunantstraße","location_desc":"Parkplatz Studentenwohnheim","recycling_type":"glass","object_type":"container","description":"FALSE","website":"FALSE","name":"FALSE","hours":"FALSE","telephone":"FALSE"},"geometry":{"type":"Point","coordinates":[7.6105,51.9475]}},{"type":"Feature","properties":{"id":70,"address":"Scharnhorststraße","location_desc":"Parkplatz PH","recycling_type":"glass","object_type":"container","description":"FALSE","website":"FALSE","name":"FALSE","hours":"FALSE","telephone":"FALSE"},"geometry":{"type":"Point","coordinates":[7.6071,51.9501]}},{"type":"Feature","properties":{"id":71,"address":"Diesterwegstraße","location_desc":"gegenüber Schmüllingstraße","recycling_type":"glass","object_type":"container","description":"FALSE","website":"FALSE","name":"FALSE","hours":"FALSE","telephone":"FALSE"},"geometry":{"type":"Point","coordinates":[7.5994,52.0009]}},{"type":"Feature","properties":{"id":72,"address":"Killingstraße","location_desc":"gegenüber Hs Nr. 25","recycling_type":"glass","object_type":"container","description":"FALSE","website":"FALSE","name":"FALSE","hours":"FALSE","telephone":"FALSE"},"geometry":{"type":"Point","coordinates":[7.5926,51.9994]}},{"type":"Feature","properties":{"id":73,"address":"Killingstraße","location_desc":"gegenüber Hs Nr. 15","recycling_type":"glass","object_type":"container","description":"FALSE","website":"FALSE","name":"FALSE","hours":"FALSE","telephone":"FALSE"},"geometry":{"type":"Point","coordinates":[7.594,51.9993]}},{"type":"Feature","properties":{"id":74,"address":"Sprickmannstraße","location_desc":"gegenüber Hs Nr. 33/35","recycling_type":"glass","object_type":"container","description":"FALSE","website":"FALSE","name":"FALSE","hours":"FALSE","telephone":"FALSE"},"geometry":{"type":"Point","coordinates":[7.5941,51.9986]}},{"type":"Feature","properties":{"id":75,"address":"Dyckburgstraße","location_desc":"Ecke Warendorfer Straße","recycling_type":"glass","object_type":"container","description":"FALSE","website":"FALSE","name":"FALSE","hours":"FALSE","telephone":"FALSE"},"geometry":{"type":"Point","coordinates":[7.6763,51.9711]}},{"type":"Feature","properties":{"id":76,"address":"Wasserstraße","location_desc":"gegenüber Hs Nr. 35","recycling_type":"glass","object_type":"container","description":"FALSE","website":"FALSE","name":"FALSE","hours":"FALSE","telephone":"FALSE"},"geometry":{"type":"Point","coordinates":[7.6308,51.9669]}},{"type":"Feature","properties":{"id":77,"address":"Nordplatz","location_desc":"gegenüber Hs Nr. 1","recycling_type":"glass","object_type":"container","description":"FALSE","website":"FALSE","name":"FALSE","hours":"FALSE","telephone":"FALSE"},"geometry":{"type":"Point","coordinates":[7.6234,51.9719]}},{"type":"Feature","properties":{"id":78,"address":"Studtplatz","location_desc":"unterirdisch Ecke Grimmstraße","recycling_type":"glass","object_type":"container","description":"FALSE","website":"FALSE","name":"FALSE","hours":"FALSE","telephone":"FALSE"},"geometry":{"type":"Point","coordinates":[7.6182,51.9693]}},{"type":"Feature","properties":{"id":79,"address":"Maximilianstraße","location_desc":"Ecke Zuhornstraße","recycling_type":"glass","object_type":"container","description":"FALSE","website":"FALSE","name":"FALSE","hours":"FALSE","telephone":"FALSE"},"geometry":{"type":"Point","coordinates":[7.627,51.9702]}},{"type":"Feature","properties":{"id":80,"address":"Am Kreuztor","location_desc":"Taxistand","recycling_type":"glass","object_type":"container","description":"FALSE","website":"FALSE","name":"FALSE","hours":"FALSE","telephone":"FALSE"},"geometry":{"type":"Point","coordinates":[7.6226,51.9682]}},{"type":"Feature","properties":{"id":81,"address":"Wienburgstraße","location_desc":"Ecke Salzmannstraße","recycling_type":"glass","object_type":"container","description":"FALSE","website":"FALSE","name":"FALSE","hours":"FALSE","telephone":"FALSE"},"geometry":{"type":"Point","coordinates":[7.6216,51.9774]}},{"type":"Feature","properties":{"id":82,"address":"Meßkamp","location_desc":"Ecke Kinderhauser Straße","recycling_type":"glass","object_type":"container","description":"FALSE","website":"FALSE","name":"FALSE","hours":"FALSE","telephone":"FALSE"},"geometry":{"type":"Point","coordinates":[7.6136,51.9804]}},{"type":"Feature","properties":{"id":83,"address":"Melchersstraße","location_desc":"Kanonierplatz","recycling_type":"glass","object_type":"container","description":"FALSE","website":"FALSE","name":"FALSE","hours":"FALSE","telephone":"FALSE"},"geometry":{"type":"Point","coordinates":[7.6132,51.9712]}},{"type":"Feature","properties":{"id":84,"address":"Jahnstraße","location_desc":"gegenüber Hs Nr.39","recycling_type":"glass","object_type":"container","description":"FALSE","website":"FALSE","name":"FALSE","hours":"FALSE","telephone":"FALSE"},"geometry":{"type":"Point","coordinates":[7.6163,51.976]}},{"type":"Feature","properties":{"id":85,"address":"Von-Einem-Straße","location_desc":"gegenüber Hs Nr. 8","recycling_type":"glass","object_type":"container","description":"FALSE","website":"FALSE","name":"FALSE","hours":"FALSE","telephone":"FALSE"},"geometry":{"type":"Point","coordinates":[7.6076,51.9829]}},{"type":"Feature","properties":{"id":86,"address":"Steinfurter Straße","location_desc":"vor Gaststätte ABC Schützenhof","recycling_type":"glass","object_type":"container","description":"FALSE","website":"FALSE","name":"FALSE","hours":"FALSE","telephone":"FALSE"},"geometry":{"type":"Point","coordinates":[7.6052,51.9745]}},{"type":"Feature","properties":{"id":87,"address":"York-Ring","location_desc":"Hauptfeuerwache","recycling_type":"glass","object_type":"container","description":"FALSE","website":"FALSE","name":"FALSE","hours":"FALSE","telephone":"FALSE"},"geometry":{"type":"Point","coordinates":[7.6104,51.9744]}},{"type":"Feature","properties":{"id":88,"address":"Wilhelmstraße","location_desc":"Ecke Orleans Ring","recycling_type":"glass","object_type":"container","description":"FALSE","website":"FALSE","name":"FALSE","hours":"FALSE","telephone":"FALSE"},"geometry":{"type":"Point","coordinates":[7.6033,51.9687]}},{"type":"Feature","properties":{"id":89,"address":"Steinfurter Straße","location_desc":"vor HL Markt, Ecke Grevener Straße","recycling_type":"glass","object_type":"container","description":"FALSE","website":"FALSE","name":"FALSE","hours":"FALSE","telephone":"FALSE"},"geometry":{"type":"Point","coordinates":[7.6124,51.9691]}},{"type":"Feature","properties":{"id":90,"address":"Horstmarer Landweg","location_desc":"Ecke Gemenweg","recycling_type":"glass","object_type":"container","description":"FALSE","website":"FALSE","name":"FALSE","hours":"FALSE","telephone":"FALSE"},"geometry":{"type":"Point","coordinates":[7.587,51.9752]}},{"type":"Feature","properties":{"id":91,"address":"Von-Esmarch-Straße","location_desc":"Ecke Schreiberstraße","recycling_type":"glass","object_type":"container","description":"FALSE","website":"FALSE","name":"FALSE","hours":"FALSE","telephone":"FALSE"},"geometry":{"type":"Point","coordinates":[7.5939,51.9652]}},{"type":"Feature","properties":{"id":92,"address":"Röntgenstraße","location_desc":"Parkplatz FH","recycling_type":"glass","object_type":"container","description":"FALSE","website":"FALSE","name":"FALSE","hours":"FALSE","telephone":"FALSE"},"geometry":{"type":"Point","coordinates":[7.5961,51.9682]}},{"type":"Feature","properties":{"id":93,"address":"Enschedeweg","location_desc":"Ecke Rüschhausweg","recycling_type":"glass","object_type":"container","description":"FALSE","website":"FALSE","name":"FALSE","hours":"FALSE","telephone":"FALSE"},"geometry":{"type":"Point","coordinates":[7.5787,51.9682]}},{"type":"Feature","properties":{"id":94,"address":"Gescherweg","location_desc":"Ecke Am Breilbusch","recycling_type":"glass","object_type":"container","description":"FALSE","website":"FALSE","name":"FALSE","hours":"FALSE","telephone":"FALSE"},"geometry":{"type":"Point","coordinates":[7.5744,51.9756]}},{"type":"Feature","properties":{"id":95,"address":"Arnheimweg","location_desc":"Parkplatz Sportgelände","recycling_type":"glass","object_type":"container","description":"FALSE","website":"FALSE","name":"FALSE","hours":"FALSE","telephone":"FALSE"},"geometry":{"type":"Point","coordinates":[7.5748,51.9652]}},{"type":"Feature","properties":{"id":96,"address":"Rüschhausweg","location_desc":"vor Rüschhaus Passage","recycling_type":"glass","object_type":"container","description":"FALSE","website":"FALSE","name":"FALSE","hours":"FALSE","telephone":"FALSE"},"geometry":{"type":"Point","coordinates":[7.5655,51.9733]}},{"type":"Feature","properties":{"id":97,"address":"Rüschhausweg","location_desc":"Ecke Asbeckweg","recycling_type":"glass","object_type":"container","description":"FALSE","website":"FALSE","name":"FALSE","hours":"FALSE","telephone":"FALSE"},"geometry":{"type":"Point","coordinates":[7.5712,51.9709]}},{"type":"Feature","properties":{"id":98,"address":"Gescherweg","location_desc":"Parkpl. Bildungszentrum der Bundesfinanzverw.","recycling_type":"glass","object_type":"container","description":"FALSE","website":"FALSE","name":"FALSE","hours":"FALSE","telephone":"FALSE"},"geometry":{"type":"Point","coordinates":[7.5746,51.9774]}},{"type":"Feature","properties":{"id":99,"address":"Hensenstraße","location_desc":"vor Hs Nr. 192, Getränke Markt","recycling_type":"glass","object_type":"container","description":"FALSE","website":"FALSE","name":"FALSE","hours":"FALSE","telephone":"FALSE"},"geometry":{"type":"Point","coordinates":[7.5701,51.9741]}},{"type":"Feature","properties":{"id":100,"address":"Twenteweg","location_desc":"vor Hs Nr. 6","recycling_type":"glass","object_type":"container","description":"FALSE","website":"FALSE","name":"FALSE","hours":"FALSE","telephone":"FALSE"},"geometry":{"type":"Point","coordinates":[7.5724,51.9728]}},{"type":"Feature","properties":{"id":101,"address":"Borghorstweg","location_desc":"Ecke Ahausweg","recycling_type":"glass","object_type":"container","description":"FALSE","website":"FALSE","name":"FALSE","hours":"FALSE","telephone":"FALSE"},"geometry":{"type":"Point","coordinates":[7.5723,51.9689]}},{"type":"Feature","properties":{"id":102,"address":"Stadtlohnweg","location_desc":"vor Altenheim, gegenüb. Hs Nr. 9-17 Studentenw.","recycling_type":"glass","object_type":"container","description":"FALSE","website":"FALSE","name":"FALSE","hours":"FALSE","telephone":"FALSE"},"geometry":{"type":"Point","coordinates":[7.5608,51.9733]}},{"type":"Feature","properties":{"id":103,"address":"Heekweg","location_desc":"gegenüber Studentenwohnheim","recycling_type":"glass","object_type":"container","description":"FALSE","website":"FALSE","name":"FALSE","hours":"FALSE","telephone":"FALSE"},"geometry":{"type":"Point","coordinates":[7.5642,51.9728]}},{"type":"Feature","properties":{"id":104,"address":"Mondstraße","location_desc":"Ecke Peter-Rosegger-Straße","recycling_type":"glass","object_type":"container","description":"FALSE","website":"FALSE","name":"FALSE","hours":"FALSE","telephone":"FALSE"},"geometry":{"type":"Point","coordinates":[7.6757,51.9499]}},{"type":"Feature","properties":{"id":105,"address":"Mondstraße","location_desc":"Ecke Hans-Bredow-Weg","recycling_type":"glass","object_type":"container","description":"FALSE","website":"FALSE","name":"FALSE","hours":"FALSE","telephone":"FALSE"},"geometry":{"type":"Point","coordinates":[7.6763,51.9582]}},{"type":"Feature","properties":{"id":106,"address":"Wolbecker Straße","location_desc":"vor Hs Nr. 294, Plus","recycling_type":"glass","object_type":"container","description":"FALSE","website":"FALSE","name":"FALSE","hours":"FALSE","telephone":"FALSE"},"geometry":{"type":"Point","coordinates":[7.6692,51.9514]}},{"type":"Feature","properties":{"id":107,"address":"Pleistermühlenweg","location_desc":"Ecke Zufahrt Recyclinghof","recycling_type":"glass","object_type":"container","description":"FALSE","website":"FALSE","name":"FALSE","hours":"FALSE","telephone":"FALSE"},"geometry":{"type":"Point","coordinates":[7.6843,51.9624]}},{"type":"Feature","properties":{"id":108,"address":"Manfred-von-Richthofen-Straße","location_desc":"Ecke Merschkamp","recycling_type":"glass","object_type":"container","description":"FALSE","website":"FALSE","name":"FALSE","hours":"FALSE","telephone":"FALSE"},"geometry":{"type":"Point","coordinates":[7.6665,51.9558]}},{"type":"Feature","properties":{"id":109,"address":"Sprickmannstraße","location_desc":"Ecke Josef-Beckmann-Str./Brünningh./Langeworth","recycling_type":"glass","object_type":"container","description":"FALSE","website":"FALSE","name":"FALSE","hours":"FALSE","telephone":"FALSE"},"geometry":{"type":"Point","coordinates":[7.5922,51.9977]}},{"type":"Feature","properties":{"id":110,"address":"Friedrich-Ebert-Straße","location_desc":"Busparkplatz","recycling_type":"glass","object_type":"container","description":"FALSE","website":"FALSE","name":"FALSE","hours":"FALSE","telephone":"FALSE"},"geometry":{"type":"Point","coordinates":[7.6318,51.9535]}},{"type":"Feature","properties":{"id":111,"address":"Hansaring","location_desc":"vor Extra","recycling_type":"glass","object_type":"container","description":"FALSE","website":"FALSE","name":"FALSE","hours":"FALSE","telephone":"FALSE"},"geometry":{"type":"Point","coordinates":[7.6463,51.9538]}},{"type":"Feature","properties":{"id":112,"address":"Bremer Platz","location_desc":"Ecke Hamburger Straße/Zufahrt Bahnhofsplatz","recycling_type":"glass","object_type":"container","description":"FALSE","website":"FALSE","name":"FALSE","hours":"FALSE","telephone":"FALSE"},"geometry":{"type":"Point","coordinates":[7.6372,51.9561]}},{"type":"Feature","properties":{"id":113,"address":"Mauritz-Lindenweg","location_desc":"neben Zufahrt zum Parkplatz","recycling_type":"glass","object_type":"container","description":"FALSE","website":"FALSE","name":"FALSE","hours":"FALSE","telephone":"FALSE"},"geometry":{"type":"Point","coordinates":[7.6588,51.9591]}},{"type":"Feature","properties":{"id":114,"address":"Gutenbergstraße","location_desc":"Ecke Lortzingstraße","recycling_type":"glass","object_type":"container","description":"FALSE","website":"FALSE","name":"FALSE","hours":"FALSE","telephone":"FALSE"},"geometry":{"type":"Point","coordinates":[7.6455,51.9603]}},{"type":"Feature","properties":{"id":115,"address":"Andreas-Hofer-Straße","location_desc":"vor Oberfinanzverwaltung","recycling_type":"glass","object_type":"container","description":"FALSE","website":"FALSE","name":"FALSE","hours":"FALSE","telephone":"FALSE"},"geometry":{"type":"Point","coordinates":[7.6529,51.9576]}},{"type":"Feature","properties":{"id":116,"address":"Von-der-Tinnen-Straße","location_desc":"gegenüber Sophienstraße","recycling_type":"glass","object_type":"container","description":"FALSE","website":"FALSE","name":"FALSE","hours":"FALSE","telephone":"FALSE"},"geometry":{"type":"Point","coordinates":[7.6482,51.9566]}},{"type":"Feature","properties":{"id":117,"address":"Friedrichstraße","location_desc":"gegenüber Hs Nr. 9, Video-Thek Studio 44Parkplatz","recycling_type":"glass","object_type":"container","description":"FALSE","website":"FALSE","name":"FALSE","hours":"FALSE","telephone":"FALSE"},"geometry":{"type":"Point","coordinates":[7.6356,51.9598]}},{"type":"Feature","properties":{"id":118,"address":"Hohenzollernring","location_desc":"gegenüber 51, nähe Ecke Manfred-v.-Richt.-Str.)","recycling_type":"glass","object_type":"container","description":"FALSE","website":"FALSE","name":"FALSE","hours":"FALSE","telephone":"FALSE"},"geometry":{"type":"Point","coordinates":[7.6474,51.9584]}},{"type":"Feature","properties":{"id":119,"address":"Oststraße","location_desc":"vor Fernmeldeamt","recycling_type":"glass","object_type":"container","description":"FALSE","website":"FALSE","name":"FALSE","hours":"FALSE","telephone":"FALSE"},"geometry":{"type":"Point","coordinates":[7.6454,51.9621]}},{"type":"Feature","properties":{"id":120,"address":"Schillerstraße","location_desc":"gegenüber Ewaldistraße","recycling_type":"glass","object_type":"container","description":"FALSE","website":"FALSE","name":"FALSE","hours":"FALSE","telephone":"FALSE"},"geometry":{"type":"Point","coordinates":[7.6474,51.9529]}},{"type":"Feature","properties":{"id":121,"address":"Theo-Breider-Weg","location_desc":"Parkplatz Mühlenhof","recycling_type":"glass","object_type":"container","description":"FALSE","website":"FALSE","name":"FALSE","hours":"FALSE","telephone":"FALSE"},"geometry":{"type":"Point","coordinates":[7.5967,51.9501]}},{"type":"Feature","properties":{"id":122,"address":"Sentruper Straße","location_desc":"gegenüber Sportplatz","recycling_type":"glass","object_type":"container","description":"FALSE","website":"FALSE","name":"FALSE","hours":"FALSE","telephone":"FALSE"},"geometry":{"type":"Point","coordinates":[7.6012,51.9552]}},{"type":"Feature","properties":{"id":123,"address":"Biederlackweg","location_desc":"vor Hs Nr. 77","recycling_type":"glass","object_type":"container","description":"FALSE","website":"FALSE","name":"FALSE","hours":"FALSE","telephone":"FALSE"},"geometry":{"type":"Point","coordinates":[7.6552,51.9306]}},{"type":"Feature","properties":{"id":124,"address":"Boelckeweg","location_desc":"gegenüber Hs Nr. 25","recycling_type":"glass","object_type":"container","description":"FALSE","website":"FALSE","name":"FALSE","hours":"FALSE","telephone":"FALSE"},"geometry":{"type":"Point","coordinates":[7.6513,51.9411]}},{"type":"Feature","properties":{"id":125,"address":"Dorffeldstraße","location_desc":"gegenüber Hs Nr. 32","recycling_type":"glass","object_type":"container","description":"FALSE","website":"FALSE","name":"FALSE","hours":"FALSE","telephone":"FALSE"},"geometry":{"type":"Point","coordinates":[7.5375,51.9507]}},{"type":"Feature","properties":{"id":126,"address":"Schelmenstiege","location_desc":"Parkplatz Bezirksverwaltungsstelle","recycling_type":"glass","object_type":"container","description":"FALSE","website":"FALSE","name":"FALSE","hours":"FALSE","telephone":"FALSE"},"geometry":{"type":"Point","coordinates":[7.5416,51.9547]}},{"type":"Feature","properties":{"id":127,"address":"Tilbecker Straße","location_desc":"Parkplatz Hallenbad","recycling_type":"glass","object_type":"container","description":"FALSE","website":"FALSE","name":"FALSE","hours":"FALSE","telephone":"FALSE"},"geometry":{"type":"Point","coordinates":[7.5271,51.9541]}},{"type":"Feature","properties":{"id":128,"address":"Pienersallee","location_desc":"gegenüber Hs Nr. 26","recycling_type":"glass","object_type":"container","description":"FALSE","website":"FALSE","name":"FALSE","hours":"FALSE","telephone":"FALSE"},"geometry":{"type":"Point","coordinates":[7.5304,51.9513]}},{"type":"Feature","properties":{"id":129,"address":"Wenningweg","location_desc":"nähe Pienersallee","recycling_type":"glass","object_type":"container","description":"FALSE","website":"FALSE","name":"FALSE","hours":"FALSE","telephone":"FALSE"},"geometry":{"type":"Point","coordinates":[7.5264,51.9493]}},{"type":"Feature","properties":{"id":130,"address":"Augustastraße","location_desc":"Ecke Friedrich-Ebert-Straße","recycling_type":"glass","object_type":"container","description":"FALSE","website":"FALSE","name":"FALSE","hours":"FALSE","telephone":"FALSE"},"geometry":{"type":"Point","coordinates":[7.6309,51.9481]}},{"type":"Feature","properties":{"id":131,"address":"Herdingstraße","location_desc":"Ecke Travelmannstraße","recycling_type":"glass","object_type":"container","description":"FALSE","website":"FALSE","name":"FALSE","hours":"FALSE","telephone":"FALSE"},"geometry":{"type":"Point","coordinates":[7.6281,51.9461]}},{"type":"Feature","properties":{"id":132,"address":"Roddestraße","location_desc":"vor Aldi","recycling_type":"glass","object_type":"container","description":"FALSE","website":"FALSE","name":"FALSE","hours":"FALSE","telephone":"FALSE"},"geometry":{"type":"Point","coordinates":[7.6304,51.9433]}},{"type":"Feature","properties":{"id":133,"address":"Geiststraße","location_desc":"Ecke Sentmaringer Weg, Marktplatz","recycling_type":"glass","object_type":"container","description":"FALSE","website":"FALSE","name":"FALSE","hours":"FALSE","telephone":"FALSE"},"geometry":{"type":"Point","coordinates":[7.622,51.9455]}},{"type":"Feature","properties":{"id":134,"address":"Am Berg Fidel","location_desc":"Parkplatz Preußenstadion","recycling_type":"glass","object_type":"container","description":"FALSE","website":"FALSE","name":"FALSE","hours":"FALSE","telephone":"FALSE"},"geometry":{"type":"Point","coordinates":[7.6252,51.9318]}},{"type":"Feature","properties":{"id":135,"address":"Düesbergweg","location_desc":"Maria-Hüffe-Stift","recycling_type":"glass","object_type":"container","description":"FALSE","website":"FALSE","name":"FALSE","hours":"FALSE","telephone":"FALSE"},"geometry":{"type":"Point","coordinates":[7.6131,51.931]}},{"type":"Feature","properties":{"id":136,"address":"Kappenberger Damm","location_desc":"vor Hs Nr. 88","recycling_type":"glass","object_type":"container","description":"FALSE","website":"FALSE","name":"FALSE","hours":"FALSE","telephone":"FALSE"},"geometry":{"type":"Point","coordinates":[7.6084,51.9353]}},{"type":"Feature","properties":{"id":137,"address":"Scheibenstraße","location_desc":"Ecke Friedrich-Ebert-Straße","recycling_type":"glass","object_type":"container","description":"FALSE","website":"FALSE","name":"FALSE","hours":"FALSE","telephone":"FALSE"},"geometry":{"type":"Point","coordinates":[7.6254,51.9424]}},{"type":"Feature","properties":{"id":138,"address":"Scheibenstraße","location_desc":"vor Hs Nr. 114","recycling_type":"glass","object_type":"container","description":"FALSE","website":"FALSE","name":"FALSE","hours":"FALSE","telephone":"FALSE"},"geometry":{"type":"Point","coordinates":[7.6274,51.9389]}},{"type":"Feature","properties":{"id":139,"address":"Fritz-Pütter-Straße","location_desc":"gegenüber HS Nr. 19","recycling_type":"glass","object_type":"container","description":"FALSE","website":"FALSE","name":"FALSE","hours":"FALSE","telephone":"FALSE"},"geometry":{"type":"Point","coordinates":[7.6279,51.9365]}},{"type":"Feature","properties":{"id":140,"address":"Bonhoefferstraße","location_desc":"gegenüber Polizeischule","recycling_type":"glass","object_type":"container","description":"FALSE","website":"FALSE","name":"FALSE","hours":"FALSE","telephone":"FALSE"},"geometry":{"type":"Point","coordinates":[7.6068,51.9417]}},{"type":"Feature","properties":{"id":141,"address":"Von-Stauffenberg-Straße","location_desc":"gegenüber Hs Nr. 36","recycling_type":"glass","object_type":"container","description":"FALSE","website":"FALSE","name":"FALSE","hours":"FALSE","telephone":"FALSE"},"geometry":{"type":"Point","coordinates":[7.6123,51.9457]}},{"type":"Feature","properties":{"id":142,"address":"Wörthstraße","location_desc":"gegenüber Hs Nr. 4","recycling_type":"glass","object_type":"container","description":"FALSE","website":"FALSE","name":"FALSE","hours":"FALSE","telephone":"FALSE"},"geometry":{"type":"Point","coordinates":[7.6225,51.9441]}},{"type":"Feature","properties":{"id":143,"address":"Elsässer Straße","location_desc":"Ecke Metzer Straße","recycling_type":"glass","object_type":"container","description":"FALSE","website":"FALSE","name":"FALSE","hours":"FALSE","telephone":"FALSE"},"geometry":{"type":"Point","coordinates":[7.6204,51.9399]}},{"type":"Feature","properties":{"id":144,"address":"Ossenkampstiege","location_desc":"Ecke Echelmeyerstraße","recycling_type":"glass","object_type":"container","description":"FALSE","website":"FALSE","name":"FALSE","hours":"FALSE","telephone":"FALSE"},"geometry":{"type":"Point","coordinates":[7.5896,51.9356]}},{"type":"Feature","properties":{"id":145,"address":"Ossenkampstiege","location_desc":"Ecke Boeselagerstraße","recycling_type":"glass","object_type":"container","description":"FALSE","website":"FALSE","name":"FALSE","hours":"FALSE","telephone":"FALSE"},"geometry":{"type":"Point","coordinates":[7.5964,51.9365]}},{"type":"Feature","properties":{"id":146,"address":"Korte Ossenbeck","location_desc":"Buskehre","recycling_type":"glass","object_type":"container","description":"FALSE","website":"FALSE","name":"FALSE","hours":"FALSE","telephone":"FALSE"},"geometry":{"type":"Point","coordinates":[7.5976,51.9373]}},{"type":"Feature","properties":{"id":147,"address":"Kleihorststraße","location_desc":"1 mal AK Aktion Friedensdorf vor Bolzplatz, nähe Ecke Niesingstraße","recycling_type":"glass","object_type":"container","description":"FALSE","website":"FALSE","name":"FALSE","hours":"FALSE","telephone":"FALSE"},"geometry":{"type":"Point","coordinates":[7.5997,51.9389]}},{"type":"Feature","properties":{"id":148,"address":"Von-Ossietzky-Straße","location_desc":"gegenüber Tennisplatz","recycling_type":"glass","object_type":"container","description":"FALSE","website":"FALSE","name":"FALSE","hours":"FALSE","telephone":"FALSE"},"geometry":{"type":"Point","coordinates":[7.6018,51.9422]}},{"type":"Feature","properties":{"id":149,"address":"Geringhoffstraße","location_desc":"Parkplatz Hit","recycling_type":"glass","object_type":"container","description":"FALSE","website":"FALSE","name":"FALSE","hours":"FALSE","telephone":"FALSE"},"geometry":{"type":"Point","coordinates":[7.6001,51.9299]}},{"type":"Feature","properties":{"id":150,"address":"Schürbusch","location_desc":"gegenüber Hs Nr. 49","recycling_type":"glass","object_type":"container","description":"FALSE","website":"FALSE","name":"FALSE","hours":"FALSE","telephone":"FALSE"},"geometry":{"type":"Point","coordinates":[7.5845,51.9296]}},{"type":"Feature","properties":{"id":151,"address":"Kanalpromenade","location_desc":"unter der Brücke","recycling_type":"glass","object_type":"container","description":"FALSE","website":"FALSE","name":"FALSE","hours":"FALSE","telephone":"FALSE"},"geometry":{"type":"Point","coordinates":[7.6567,51.9064]}},{"type":"Feature","properties":{"id":152,"address":"Im Hain","location_desc":"gegenüber Hs Nr. 35","recycling_type":"glass","object_type":"container","description":"FALSE","website":"FALSE","name":"FALSE","hours":"FALSE","telephone":"FALSE"},"geometry":{"type":"Point","coordinates":[7.6559,51.9127]}},{"type":"Feature","properties":{"id":153,"address":"Zum Hiltruper See","location_desc":"Ortsausgang, vor Hs Nr.21","recycling_type":"glass","object_type":"container","description":"FALSE","website":"FALSE","name":"FALSE","hours":"FALSE","telephone":"FALSE"},"geometry":{"type":"Point","coordinates":[7.6597,51.9036]}},{"type":"Feature","properties":{"id":154,"address":"Amelsbürener Straße","location_desc":"Ecke Langestraße","recycling_type":"glass","object_type":"container","description":"FALSE","website":"FALSE","name":"FALSE","hours":"FALSE","telephone":"FALSE"},"geometry":{"type":"Point","coordinates":[7.6343,51.9004]}},{"type":"Feature","properties":{"id":155,"address":"Westfalenstraße","location_desc":"gegenüber Zur Vogelstange","recycling_type":"glass","object_type":"container","description":"FALSE","website":"FALSE","name":"FALSE","hours":"FALSE","telephone":"FALSE"},"geometry":{"type":"Point","coordinates":[7.641,51.899]}},{"type":"Feature","properties":{"id":156,"address":"Beethovenstraße","location_desc":"gegenüber Hs Nr. 7","recycling_type":"glass","object_type":"container","description":"FALSE","website":"FALSE","name":"FALSE","hours":"FALSE","telephone":"FALSE"},"geometry":{"type":"Point","coordinates":[7.6487,51.91]}},{"type":"Feature","properties":{"id":157,"address":"Hoffmann-von-Fallersleben-Weg","location_desc":"gegenüber Kortumstraße","recycling_type":"glass","object_type":"container","description":"FALSE","website":"FALSE","name":"FALSE","hours":"FALSE","telephone":"FALSE"},"geometry":{"type":"Point","coordinates":[7.6349,51.9026]}},{"type":"Feature","properties":{"id":158,"address":"Zum Roten Berge","location_desc":"Parkplatz Polizeiakademie","recycling_type":"glass","object_type":"container","description":"FALSE","website":"FALSE","name":"FALSE","hours":"FALSE","telephone":"FALSE"},"geometry":{"type":"Point","coordinates":[7.6448,51.8988]}},{"type":"Feature","properties":{"id":159,"address":"Theodor-Storm-Straße","location_desc":"Ecke Im Stemmen","recycling_type":"glass","object_type":"container","description":"FALSE","website":"FALSE","name":"FALSE","hours":"FALSE","telephone":"FALSE"},"geometry":{"type":"Point","coordinates":[7.6316,51.9016]}},{"type":"Feature","properties":{"id":160,"address":"Amelsbürener Straße","location_desc":"Ecke Meesenstiege","recycling_type":"glass","object_type":"container","description":"FALSE","website":"FALSE","name":"FALSE","hours":"FALSE","telephone":"FALSE"},"geometry":{"type":"Point","coordinates":[7.6235,51.8981]}},{"type":"Feature","properties":{"id":161,"address":"Hünenburg","location_desc":"gegenüber Linckenstraße","recycling_type":"glass","object_type":"container","description":"FALSE","website":"FALSE","name":"FALSE","hours":"FALSE","telephone":"FALSE"},"geometry":{"type":"Point","coordinates":[7.6239,51.911]}},{"type":"Feature","properties":{"id":162,"address":"Burgwall","location_desc":"nähe Linckestraße","recycling_type":"glass","object_type":"container","description":"FALSE","website":"FALSE","name":"FALSE","hours":"FALSE","telephone":"FALSE"},"geometry":{"type":"Point","coordinates":[7.6196,51.9068]}},{"type":"Feature","properties":{"id":163,"address":"Osttor","location_desc":"Parkplatz StadionParkplatz Stadion","recycling_type":"glass","object_type":"container","description":"FALSE","website":"FALSE","name":"FALSE","hours":"FALSE","telephone":"FALSE"},"geometry":{"type":"Point","coordinates":[7.6688,51.9066]}},{"type":"Feature","properties":{"id":164,"address":"Am Roggenkamp","location_desc":"vor Hs Nr. 173","recycling_type":"glass","object_type":"container","description":"FALSE","website":"FALSE","name":"FALSE","hours":"FALSE","telephone":"FALSE"},"geometry":{"type":"Point","coordinates":[7.673,51.904]}},{"type":"Feature","properties":{"id":165,"address":"Adolf-Wentrup-Weg","location_desc":"gegenüber Asternweg","recycling_type":"glass","object_type":"container","description":"FALSE","website":"FALSE","name":"FALSE","hours":"FALSE","telephone":"FALSE"},"geometry":{"type":"Point","coordinates":[7.6688,51.9025]}},{"type":"Feature","properties":{"id":166,"address":"Zum Kaiserbusch","location_desc":"gegenüber Hs Nr. 1, Nähe Ecke Albersloher Weg","recycling_type":"glass","object_type":"container","description":"FALSE","website":"FALSE","name":"FALSE","hours":"FALSE","telephone":"FALSE"},"geometry":{"type":"Point","coordinates":[7.6844,51.9127]}},{"type":"Feature","properties":{"id":167,"address":"Peter-Büscher-Straße","location_desc":"gegenüber Hs Nr. 9","recycling_type":"glass","object_type":"container","description":"FALSE","website":"FALSE","name":"FALSE","hours":"FALSE","telephone":"FALSE"},"geometry":{"type":"Point","coordinates":[7.6871,51.9125]}},{"type":"Feature","properties":{"id":168,"address":"Osthuesheide","location_desc":"im Wendehammer","recycling_type":"glass","object_type":"container","description":"FALSE","website":"FALSE","name":"FALSE","hours":"FALSE","telephone":"FALSE"},"geometry":{"type":"Point","coordinates":[7.6899,51.9121]}},{"type":"Feature","properties":{"id":169,"address":"Schmittingheide","location_desc":"vor Bundesbahnschule","recycling_type":"glass","object_type":"container","description":"FALSE","website":"FALSE","name":"FALSE","hours":"FALSE","telephone":"FALSE"},"geometry":{"type":"Point","coordinates":[7.6742,51.9479]}},{"type":"Feature","properties":{"id":170,"address":"Anton-Knubel-Weg","location_desc":"Ecke Erbdrostenweg","recycling_type":"glass","object_type":"container","description":"FALSE","website":"FALSE","name":"FALSE","hours":"FALSE","telephone":"FALSE"},"geometry":{"type":"Point","coordinates":[7.667,51.9318]}},{"type":"Feature","properties":{"id":171,"address":"Gremmendorfer Weg","location_desc":"Ecke Böddingheideweg","recycling_type":"glass","object_type":"container","description":"FALSE","website":"FALSE","name":"FALSE","hours":"FALSE","telephone":"FALSE"},"geometry":{"type":"Point","coordinates":[7.681,51.9322]}},{"type":"Feature","properties":{"id":172,"address":"Angelmodder Weg","location_desc":"Hst. Agathastraße","recycling_type":"glass","object_type":"container","description":"FALSE","website":"FALSE","name":"FALSE","hours":"FALSE","telephone":"FALSE"},"geometry":{"type":"Point","coordinates":[7.6872,51.9284]}},{"type":"Feature","properties":{"id":173,"address":"Frankenweg","location_desc":"gegenüber Hs Nr.15","recycling_type":"glass","object_type":"container","description":"FALSE","website":"FALSE","name":"FALSE","hours":"FALSE","telephone":"FALSE"},"geometry":{"type":"Point","coordinates":[7.669,51.9207]}},{"type":"Feature","properties":{"id":174,"address":"Buschstraße","location_desc":"gegenüner Hs Nr. 4, Mittelstreifen","recycling_type":"glass","object_type":"container","description":"FALSE","website":"FALSE","name":"FALSE","hours":"FALSE","telephone":"FALSE"},"geometry":{"type":"Point","coordinates":[7.6773,51.9221]}},{"type":"Feature","properties":{"id":175,"address":"Zum Erlenbusch","location_desc":"vor Hs Nr. 100","recycling_type":"glass","object_type":"container","description":"FALSE","website":"FALSE","name":"FALSE","hours":"FALSE","telephone":"FALSE"},"geometry":{"type":"Point","coordinates":[7.6812,51.9197]}},{"type":"Feature","properties":{"id":176,"address":"Vogelrohrsheide","location_desc":"Ecke Stichstr. bei Hs Nr. 136-144","recycling_type":"glass","object_type":"container","description":"FALSE","website":"FALSE","name":"FALSE","hours":"FALSE","telephone":"FALSE"},"geometry":{"type":"Point","coordinates":[7.6846,51.9145]}},{"type":"Feature","properties":{"id":177,"address":"Am Schütthook","location_desc":"Hst. Junker-Jörg-Platz","recycling_type":"glass","object_type":"container","description":"FALSE","website":"FALSE","name":"FALSE","hours":"FALSE","telephone":"FALSE"},"geometry":{"type":"Point","coordinates":[7.69,51.9155]}},{"type":"Feature","properties":{"id":178,"address":"Schlesienstraße","location_desc":"Ecke Ostpreußenstraße","recycling_type":"glass","object_type":"container","description":"FALSE","website":"FALSE","name":"FALSE","hours":"FALSE","telephone":"FALSE"},"geometry":{"type":"Point","coordinates":[7.6775,51.9184]}},{"type":"Feature","properties":{"id":179,"address":"Gremmendorfer Weg","location_desc":"vor Hs Nr. 34, Getränkemarkt","recycling_type":"glass","object_type":"container","description":"FALSE","website":"FALSE","name":"FALSE","hours":"FALSE","telephone":"FALSE"},"geometry":{"type":"Point","coordinates":[7.6725,51.9296]}},{"type":"Feature","properties":{"id":180,"address":"Albersloher Weg","location_desc":"gegenüber Hs Nr. 419","recycling_type":"glass","object_type":"container","description":"FALSE","website":"FALSE","name":"FALSE","hours":"FALSE","telephone":"FALSE"},"geometry":{"type":"Point","coordinates":[7.6659,51.9297]}},{"type":"Feature","properties":{"id":181,"address":"Albersloher Weg","location_desc":"Extra Parkplatz","recycling_type":"glass","object_type":"container","description":"FALSE","website":"FALSE","name":"FALSE","hours":"FALSE","telephone":"FALSE"},"geometry":{"type":"Point","coordinates":[7.6717,51.925]}},{"type":"Feature","properties":{"id":182,"address":"Merkureck","location_desc":"nähe Ecke Hohe Geest","recycling_type":"glass","object_type":"container","description":"FALSE","website":"FALSE","name":"FALSE","hours":"FALSE","telephone":"FALSE"},"geometry":{"type":"Point","coordinates":[7.6349,51.9139]}},{"type":"Feature","properties":{"id":183,"address":"Buldernweg","location_desc":"Ecke Drensteinfurtweg","recycling_type":"glass","object_type":"container","description":"FALSE","website":"FALSE","name":"FALSE","hours":"FALSE","telephone":"FALSE"},"geometry":{"type":"Point","coordinates":[7.601,51.9267]}},{"type":"Feature","properties":{"id":184,"address":"Werneweg","location_desc":"gegenüber Zufahrt zu Hs Nr. 1-72","recycling_type":"glass","object_type":"container","description":"FALSE","website":"FALSE","name":"FALSE","hours":"FALSE","telephone":"FALSE"},"geometry":{"type":"Point","coordinates":[7.6032,51.9242]}},{"type":"Feature","properties":{"id":185,"address":"Rockbusch","location_desc":"Ecke Kleibusch","recycling_type":"glass","object_type":"container","description":"FALSE","website":"FALSE","name":"FALSE","hours":"FALSE","telephone":"FALSE"},"geometry":{"type":"Point","coordinates":[7.5758,51.92]}},{"type":"Feature","properties":{"id":186,"address":"Westenkamp","location_desc":"gegenüber Hs Nr. 32","recycling_type":"glass","object_type":"container","description":"FALSE","website":"FALSE","name":"FALSE","hours":"FALSE","telephone":"FALSE"},"geometry":{"type":"Point","coordinates":[7.5742,51.9294]}},{"type":"Feature","properties":{"id":187,"address":"Heroldstraße","location_desc":"neben Hs Nr. 31","recycling_type":"glass","object_type":"container","description":"FALSE","website":"FALSE","name":"FALSE","hours":"FALSE","telephone":"FALSE"},"geometry":{"type":"Point","coordinates":[7.5736,51.9224]}},{"type":"Feature","properties":{"id":188,"address":"Osthofstraße","location_desc":"Parkplatz Friedhof","recycling_type":"glass","object_type":"container","description":"FALSE","website":"FALSE","name":"FALSE","hours":"FALSE","telephone":"FALSE"},"geometry":{"type":"Point","coordinates":[7.5264,51.9235]}},{"type":"Feature","properties":{"id":189,"address":"Am Kämpken","location_desc":"Am Kämpken vor Spielplatz","recycling_type":"glass","object_type":"container","description":"FALSE","website":"FALSE","name":"FALSE","hours":"FALSE","telephone":"FALSE"},"geometry":{"type":"Point","coordinates":[7.5263,51.9202]}},{"type":"Feature","properties":{"id":190,"address":"Dülmener Straße","location_desc":"vor Friedhof","recycling_type":"glass","object_type":"container","description":"FALSE","website":"FALSE","name":"FALSE","hours":"FALSE","telephone":"FALSE"},"geometry":{"type":"Point","coordinates":[7.5215,51.925]}},{"type":"Feature","properties":{"id":191,"address":"Pater-Kolbe-Straße","location_desc":"Ecke Am Dornbusch","recycling_type":"glass","object_type":"container","description":"FALSE","website":"FALSE","name":"FALSE","hours":"FALSE","telephone":"FALSE"},"geometry":{"type":"Point","coordinates":[7.6158,51.8833]}},{"type":"Feature","properties":{"id":192,"address":"Eichendorffstraße","location_desc":"vor Hs Nr. 3","recycling_type":"glass","object_type":"container","description":"FALSE","website":"FALSE","name":"FALSE","hours":"FALSE","telephone":"FALSE"},"geometry":{"type":"Point","coordinates":[7.691,51.9144]}},{"type":"Feature","properties":{"id":193,"address":"Theodor-Heuss-Straße","location_desc":"vor Hs Nr. 10","recycling_type":"glass","object_type":"container","description":"FALSE","website":"FALSE","name":"FALSE","hours":"FALSE","telephone":"FALSE"},"geometry":{"type":"Point","coordinates":[7.6927,51.9147]}},{"type":"Feature","properties":{"id":194,"address":"Hiltruper Straße","location_desc":"auf Parkstreifen gegenüber Hs Nr. 68","recycling_type":"glass","object_type":"container","description":"FALSE","website":"FALSE","name":"FALSE","hours":"FALSE","telephone":"FALSE"},"geometry":{"type":"Point","coordinates":[7.7179,51.9115]}},{"type":"Feature","properties":{"id":195,"address":"Am Steintor","location_desc":"gegenüer Hs Nr. 66","recycling_type":"glass","object_type":"container","description":"FALSE","website":"FALSE","name":"FALSE","hours":"FALSE","telephone":"FALSE"},"geometry":{"type":"Point","coordinates":[7.7284,51.912]}},{"type":"Feature","properties":{"id":196,"address":"Eschstraße","location_desc":"gegenüber Hs Nr. 3a","recycling_type":"glass","object_type":"container","description":"FALSE","website":"FALSE","name":"FALSE","hours":"FALSE","telephone":"FALSE"},"geometry":{"type":"Point","coordinates":[7.7274,51.9214]}},{"type":"Feature","properties":{"id":197,"address":"Goldbrink","location_desc":"auf Parkstreifen Ecke Kupferbrink","recycling_type":"glass","object_type":"container","description":"FALSE","website":"FALSE","name":"FALSE","hours":"FALSE","telephone":"FALSE"},"geometry":{"type":"Point","coordinates":[7.7216,51.9229]}},{"type":"Feature","properties":{"id":198,"address":"Kriegerweg","location_desc":"vor Bahnbrücke rechts","recycling_type":"glass","object_type":"container","description":"FALSE","website":"FALSE","name":"FALSE","hours":"FALSE","telephone":"FALSE"},"geometry":{"type":"Point","coordinates":[7.6119,51.9247]}},{"type":"Feature","properties":{"id":199,"address":"Ter-Borch-Straße","location_desc":"auf Parkplatz","recycling_type":"glass","object_type":"container","description":"FALSE","website":"FALSE","name":"FALSE","hours":"FALSE","telephone":"FALSE"},"geometry":{"type":"Point","coordinates":[7.6206,51.9255]}},{"type":"Feature","properties":{"id":200,"address":"Pankokstraße","location_desc":"segmentanfang (altenheim)","recycling_type":"glass","object_type":"container","description":"FALSE","website":"FALSE","name":"FALSE","hours":"FALSE","telephone":"FALSE"},"geometry":{"type":"Point","coordinates":[7.6228,51.9264]}},{"type":"Feature","properties":{"id":201,"address":"Am Berg Fidel","location_desc":"? gegenüber Hs Nr. 66","recycling_type":"glass","object_type":"container","description":"FALSE","website":"FALSE","name":"FALSE","hours":"FALSE","telephone":"FALSE"},"geometry":{"type":"Point","coordinates":[7.624,51.927]}},{"type":"Feature","properties":{"id":202,"address":"Hogenbergstraße","location_desc":"? vor Hs Nr. 27","recycling_type":"glass","object_type":"container","description":"FALSE","website":"FALSE","name":"FALSE","hours":"FALSE","telephone":"FALSE"},"geometry":{"type":"Point","coordinates":[7.62,51.9272]}},{"type":"Feature","properties":{"id":203,"address":"Lechterstraße","location_desc":"? gegenüber Parkplatz","recycling_type":"glass","object_type":"container","description":"FALSE","website":"FALSE","name":"FALSE","hours":"FALSE","telephone":"FALSE"},"geometry":{"type":"Point","coordinates":[7.6174,51.9256]}},{"type":"Feature","properties":{"id":204,"address":"Elsa-Brändström-Weg","location_desc":"auf Gehweg Ecke Vennheideweg","recycling_type":"glass","object_type":"container","description":"FALSE","website":"FALSE","name":"FALSE","hours":"FALSE","telephone":"FALSE"},"geometry":{"type":"Point","coordinates":[7.6217,51.9214]}},{"type":"Feature","properties":{"id":205,"address":"Brandhoveweg","location_desc":"Nähe Ecke Hiltruper Str.","recycling_type":"glass","object_type":"container","description":"FALSE","website":"FALSE","name":"FALSE","hours":"FALSE","telephone":"FALSE"},"geometry":{"type":"Point","coordinates":[7.7121,51.9111]}},{"type":"Feature","properties":{"id":206,"address":"Alter Postweg","location_desc":"gegenüber Hs Nr. 70","recycling_type":"glass","object_type":"container","description":"FALSE","website":"FALSE","name":"FALSE","hours":"FALSE","telephone":"FALSE"},"geometry":{"type":"Point","coordinates":[7.7,51.924]}},{"type":"Feature","properties":{"id":207,"address":"Am Hawerkamp","location_desc":"? auf Parkplatz vor Hs Nr. 39","recycling_type":"glass","object_type":"container","description":"FALSE","website":"FALSE","name":"FALSE","hours":"FALSE","telephone":"FALSE"},"geometry":{"type":"Point","coordinates":[7.6381,51.9461]}},{"type":"Feature","properties":{"id":208,"address":"Steinfurter Straße","location_desc":"auf Gelände Studentenwohnheim","recycling_type":"glass","object_type":"container","description":"FALSE","website":"FALSE","name":"FALSE","hours":"FALSE","telephone":"FALSE"},"geometry":{"type":"Point","coordinates":[7.6065,51.9723]}},{"type":"Feature","properties":{"id":209,"address":"Warendorfer Straße","location_desc":"auf Parkplatz","recycling_type":"glass","object_type":"container","description":"FALSE","website":"FALSE","name":"FALSE","hours":"FALSE","telephone":"FALSE"},"geometry":{"type":"Point","coordinates":[7.6575,51.9678]}},{"type":"Feature","properties":{"id":210,"address":"Wolbecker Straße","location_desc":"Parkplatz Freibad Stapelskotten","recycling_type":"glass","object_type":"container","description":"FALSE","website":"FALSE","name":"FALSE","hours":"FALSE","telephone":"FALSE"},"geometry":{"type":"Point","coordinates":[7.6832,51.9481]}},{"type":"Feature","properties":{"id":211,"address":"Königsstraße","location_desc":"unterirdisch glas, gegenüber Hs Nr. 20","recycling_type":"glass","object_type":"container","description":"FALSE","website":"FALSE","name":"FALSE","hours":"FALSE","telephone":"FALSE"},"geometry":{"type":"Point","coordinates":[7.6258,51.959]}},{"type":"Feature","properties":{"id":212,"address":"Piusallee","location_desc":"Ecke Holsteiner Str. (Parkplatz)","recycling_type":"glass","object_type":"container","description":"FALSE","website":"FALSE","name":"FALSE","hours":"FALSE","telephone":"FALSE"},"geometry":{"type":"Point","coordinates":[7.641,51.9714]}},{"type":"Feature","properties":{"id":213,"address":"Heisenbergstraße","location_desc":"vor Hs Nr. 131-134","recycling_type":"glass","object_type":"container","description":"FALSE","website":"FALSE","name":"FALSE","hours":"FALSE","telephone":"FALSE"},"geometry":{"type":"Point","coordinates":[7.5915,51.9697]}},{"type":"Feature","properties":{"id":214,"address":"Meyerbeerstraße","location_desc":"Parkstreifen","recycling_type":"glass","object_type":"container","description":"FALSE","website":"FALSE","name":"FALSE","hours":"FALSE","telephone":"FALSE"},"geometry":{"type":"Point","coordinates":[7.5767,51.9258]}},{"type":"Feature","properties":{"id":215,"address":"Hiltruper Straße","location_desc":"Marktplatz","recycling_type":"glass","object_type":"container","description":"FALSE","website":"FALSE","name":"FALSE","hours":"FALSE","telephone":"FALSE"},"geometry":{"type":"Point","coordinates":[7.7255,51.916]}},{"type":"Feature","properties":{"id":216,"address":"Franz-Marc-Weg","location_desc":"Buswendeplatz","recycling_type":"glass","object_type":"container","description":"FALSE","website":"FALSE","name":"FALSE","hours":"FALSE","telephone":"FALSE"},"geometry":{"type":"Point","coordinates":[7.6668,51.9011]}},{"type":"Feature","properties":{"id":217,"address":"Katthagen","location_desc":"Ecke Rosenplatz","recycling_type":"glass","object_type":"container","description":"FALSE","website":"FALSE","name":"FALSE","hours":"FALSE","telephone":"FALSE"},"geometry":{"type":"Point","coordinates":[7.6222,51.9651]}},{"type":"Feature","properties":{"id":218,"address":"Concordenstraße","location_desc":"Parkplatz am Sportplatz","recycling_type":"glass","object_type":"container","description":"FALSE","website":"FALSE","name":"FALSE","hours":"FALSE","telephone":"FALSE"},"geometry":{"type":"Point","coordinates":[7.5298,51.9239]}},{"type":"Feature","properties":{"id":219,"address":"Hofstraße","location_desc":"vor dem Feuerwehrgerätehaus/Hst. Kurhaus","recycling_type":"glass","object_type":"container","description":"FALSE","website":"FALSE","name":"FALSE","hours":"FALSE","telephone":"FALSE"},"geometry":{"type":"Point","coordinates":[7.7346,51.9171]}},{"type":"Feature","properties":{"id":220,"address":"Davertstraße","location_desc":"Parkplatz","recycling_type":"glass","object_type":"container","description":"FALSE","website":"FALSE","name":"FALSE","hours":"FALSE","telephone":"FALSE"},"geometry":{"type":"Point","coordinates":[7.6046,51.8855]}},{"type":"Feature","properties":{"id":221,"address":"Ritterstraße","location_desc":"Hörster Parkplatz","recycling_type":"glass","object_type":"container","description":"FALSE","website":"FALSE","name":"FALSE","hours":"FALSE","telephone":"FALSE"},"geometry":{"type":"Point","coordinates":[7.6315,51.9641]}},{"type":"Feature","properties":{"id":222,"address":"Marktallee","location_desc":"Parkplatz Stadthalle","recycling_type":"glass","object_type":"container","description":"FALSE","website":"FALSE","name":"FALSE","hours":"FALSE","telephone":"FALSE"},"geometry":{"type":"Point","coordinates":[7.6399,51.9023]}},{"type":"Feature","properties":{"id":223,"address":"Rudolf-Harbig-Weg","location_desc":"vor Hs Nr. 39-51 (Parkbucht)","recycling_type":"glass","object_type":"container","description":"FALSE","website":"FALSE","name":"FALSE","hours":"FALSE","telephone":"FALSE"},"geometry":{"type":"Point","coordinates":[7.5936,51.9742]}},{"type":"Feature","properties":{"id":224,"address":"Laerer Werseufer","location_desc":"Freibad Stapelskotten (gegnü. Einf. Campingpl.)","recycling_type":"glass","object_type":"container","description":"FALSE","website":"FALSE","name":"FALSE","hours":"FALSE","telephone":"FALSE"},"geometry":{"type":"Point","coordinates":[7.6906,51.9468]}},{"type":"Feature","properties":{"id":225,"address":"Straße A 1 Köln - Bremen","location_desc":"Höhe PKW Parkplatz","recycling_type":"glass","object_type":"container","description":"FALSE","website":"FALSE","name":"FALSE","hours":"FALSE","telephone":"FALSE"},"geometry":{"type":"Point","coordinates":[7.5512,51.9411]}},{"type":"Feature","properties":{"id":226,"address":"Straße A 1 Köln - Bremen","location_desc":"in Höhe Pkw Parkplatz","recycling_type":"glass","object_type":"container","description":"FALSE","website":"FALSE","name":"FALSE","hours":"FALSE","telephone":"FALSE"},"geometry":{"type":"Point","coordinates":[7.5481,51.9446]}},{"type":"Feature","properties":{"id":227,"address":"Am Borggarten","location_desc":"FALSE","recycling_type":"glass","object_type":"container","description":"FALSE","website":"FALSE","name":"FALSE","hours":"FALSE","telephone":"FALSE"},"geometry":{"type":"Point","coordinates":[7.7305,51.9214]}},{"type":"Feature","properties":{"id":228,"address":"Am Schütthook","location_desc":"Parkplatz Am Schütthook","recycling_type":"glass","object_type":"container","description":"FALSE","website":"FALSE","name":"FALSE","hours":"FALSE","telephone":"FALSE"},"geometry":{"type":"Point","coordinates":[7.6944,51.9161]}},{"type":"Feature","properties":{"id":229,"address":"Grevener Straße","location_desc":"vor Hs Nr. 89","recycling_type":"glass","object_type":"container","description":"FALSE","website":"FALSE","name":"FALSE","hours":"FALSE","telephone":"FALSE"},"geometry":{"type":"Point","coordinates":[7.612,51.9772]}},{"type":"Feature","properties":{"id":230,"address":"Moränenstraße","location_desc":"FALSE","recycling_type":"glass","object_type":"container","description":"FALSE","website":"FALSE","name":"FALSE","hours":"FALSE","telephone":"FALSE"},"geometry":{"type":"Point","coordinates":[7.6425,51.905]}},{"type":"Feature","properties":{"id":231,"address":"Max-Winkelmann-Straße","location_desc":"FALSE","recycling_type":"glass","object_type":"container","description":"FALSE","website":"FALSE","name":"FALSE","hours":"FALSE","telephone":"FALSE"},"geometry":{"type":"Point","coordinates":[7.6542,51.9039]}},{"type":"Feature","properties":{"id":232,"address":"Brandhoveweg","location_desc":"Nähe Twenhövenweg","recycling_type":"glass","object_type":"container","description":"FALSE","website":"FALSE","name":"FALSE","hours":"FALSE","telephone":"FALSE"},"geometry":{"type":"Point","coordinates":[7.7078,51.9176]}},{"type":"Feature","properties":{"id":233,"address":"Schlusenweg","location_desc":"Ecke Kapustaweg","recycling_type":"glass","object_type":"container","description":"FALSE","website":"FALSE","name":"FALSE","hours":"FALSE","telephone":"FALSE"},"geometry":{"type":"Point","coordinates":[7.6182,52.0329]}},{"type":"Feature","properties":{"id":234,"address":"Stiftsstraße","location_desc":"FALSE","recycling_type":"glass","object_type":"container","description":"FALSE","website":"FALSE","name":"FALSE","hours":"FALSE","telephone":"FALSE"},"geometry":{"type":"Point","coordinates":[7.649,51.9638]}},{"type":"Feature","properties":{"id":235,"address":"Brockmannstraße","location_desc":"gegenüber Hs Nr. 66","recycling_type":"glass","object_type":"container","description":"FALSE","website":"FALSE","name":"FALSE","hours":"FALSE","telephone":"FALSE"},"geometry":{"type":"Point","coordinates":[7.5792,51.9305]}},{"type":"Feature","properties":{"id":236,"address":"Schulte-Hermann-Straße","location_desc":"bei Hs Nr. 9","recycling_type":"glass","object_type":"container","description":"FALSE","website":"FALSE","name":"FALSE","hours":"FALSE","telephone":"FALSE"},"geometry":{"type":"Point","coordinates":[7.5336,51.9533]}},{"type":"Feature","properties":{"id":237,"address":"Langenkamp","location_desc":"Bahnhof Albachten","recycling_type":"glass","object_type":"container","description":"FALSE","website":"FALSE","name":"FALSE","hours":"FALSE","telephone":"FALSE"},"geometry":{"type":"Point","coordinates":[7.5264,51.9146]}},{"type":"Feature","properties":{"id":238,"address":"Davertstraße","location_desc":"Parkplatz Feuerwehr/Friedhof","recycling_type":"glass","object_type":"container","description":"FALSE","website":"FALSE","name":"FALSE","hours":"FALSE","telephone":"FALSE"},"geometry":{"type":"Point","coordinates":[7.6085,51.8813]}},{"type":"Feature","properties":{"id":239,"address":"Auf der Woort","location_desc":"gegenüber Hst. Davertstraße C","recycling_type":"glass","object_type":"container","description":"FALSE","website":"FALSE","name":"FALSE","hours":"FALSE","telephone":"FALSE"},"geometry":{"type":"Point","coordinates":[7.6054,51.883]}},{"type":"Feature","properties":{"id":240,"address":"Kappenberger Damm","location_desc":"Parkplatz Wiedau-Schule, 2 x Glas","recycling_type":"glass","object_type":"container","description":"FALSE","website":"FALSE","name":"FALSE","hours":"FALSE","telephone":"FALSE"},"geometry":{"type":"Point","coordinates":[7.5788,51.8945]}},{"type":"Feature","properties":{"id":241,"address":"An der Kleimannbrücke","location_desc":"Ecke August-Horch-Straße","recycling_type":"glass","object_type":"container","description":"FALSE","website":"FALSE","name":"FALSE","hours":"FALSE","telephone":"FALSE"},"geometry":{"type":"Point","coordinates":[7.6626,51.9959]}},{"type":"Feature","properties":{"id":242,"address":"Hessenbusch","location_desc":"Hs Nr. 186 (EZN)","recycling_type":"glass","object_type":"container","description":"FALSE","website":"FALSE","name":"FALSE","hours":"FALSE","telephone":"FALSE"},"geometry":{"type":"Point","coordinates":[7.6656,52.0111]}},{"type":"Feature","properties":{"id":243,"address":"Bernings Kotten","location_desc":"Recyclinghof Gievenbeck, Berningskotten","recycling_type":"glass","object_type":"container","description":"FALSE","website":"FALSE","name":"FALSE","hours":"FALSE","telephone":"FALSE"},"geometry":{"type":"Point","coordinates":[7.5706,51.9609]}},{"type":"Feature","properties":{"id":244,"address":"Roxeler Straße","location_desc":"RATIO Verbrauchermarkt Roxeler Str.416-420","recycling_type":"glass","object_type":"container","description":"FALSE","website":"FALSE","name":"FALSE","hours":"FALSE","telephone":"FALSE"},"geometry":{"type":"Point","coordinates":[7.5717,51.9576]}},{"type":"Feature","properties":{"id":245,"address":"Wickenkamp","location_desc":"Ecke Dieckmannstraße","recycling_type":"glass","object_type":"container","description":"FALSE","website":"FALSE","name":"FALSE","hours":"FALSE","telephone":"FALSE"},"geometry":{"type":"Point","coordinates":[7.5621,51.968]}},{"type":"Feature","properties":{"id":246,"address":"Gievenbecker Reihe","location_desc":"am Sportplatz","recycling_type":"glass","object_type":"container","description":"FALSE","website":"FALSE","name":"FALSE","hours":"FALSE","telephone":"FALSE"},"geometry":{"type":"Point","coordinates":[7.568,51.9653]}},{"type":"Feature","properties":{"id":247,"address":"Egbert-Snoek-Straße","location_desc":"Parkplatz Marktkauf","recycling_type":"glass","object_type":"container","description":"FALSE","website":"FALSE","name":"FALSE","hours":"FALSE","telephone":"FALSE"},"geometry":{"type":"Point","coordinates":[7.6466,51.9391]}},{"type":"Feature","properties":{"id":248,"address":"Im Sundern","location_desc":"Ecke Mariendorfer Straße","recycling_type":"glass","object_type":"container","description":"FALSE","website":"FALSE","name":"FALSE","hours":"FALSE","telephone":"FALSE"},"geometry":{"type":"Point","coordinates":[7.674,51.9886]}},{"type":"Feature","properties":{"id":249,"address":"Glasuritstraße","location_desc":"Recyclinghof Hiltrup","recycling_type":"glass","object_type":"container","description":"FALSE","website":"FALSE","name":"FALSE","hours":"FALSE","telephone":"FALSE"},"geometry":{"type":"Point","coordinates":[7.6442,51.8958]}},{"type":"Feature","properties":{"id":250,"address":"Zum Hiltruper See","location_desc":"Parkplatz Hohe Ward","recycling_type":"glass","object_type":"container","description":"FALSE","website":"FALSE","name":"FALSE","hours":"FALSE","telephone":"FALSE"},"geometry":{"type":"Point","coordinates":[7.6497,51.8864]}},{"type":"Feature","properties":{"id":251,"address":"Diesterwegstraße","location_desc":"Ecke Meinertzstraße","recycling_type":"glass","object_type":"container","description":"FALSE","website":"FALSE","name":"FALSE","hours":"FALSE","telephone":"FALSE"},"geometry":{"type":"Point","coordinates":[7.5993,52.0019]}},{"type":"Feature","properties":{"id":252,"address":"Waltruper Weg","location_desc":"Recyclinghof Nienberge","recycling_type":"glass","object_type":"container","description":"FALSE","website":"FALSE","name":"FALSE","hours":"FALSE","telephone":"FALSE"},"geometry":{"type":"Point","coordinates":[7.5436,51.9931]}},{"type":"Feature","properties":{"id":253,"address":"Rösnerstraße","location_desc":"Recyclinghof Eulerstraße","recycling_type":"glass","object_type":"container","description":"FALSE","website":"FALSE","name":"FALSE","hours":"FALSE","telephone":"FALSE"},"geometry":{"type":"Point","coordinates":[7.6415,51.9389]}},{"type":"Feature","properties":{"id":254,"address":"Fridtjof-Nansen-Weg","location_desc":"vor Hs Nr. 10","recycling_type":"glass","object_type":"container","description":"FALSE","website":"FALSE","name":"FALSE","hours":"FALSE","telephone":"FALSE"},"geometry":{"type":"Point","coordinates":[7.6548,51.9332]}},{"type":"Feature","properties":{"id":255,"address":"Hessenbusch","location_desc":"gegenüber Hs Nr. 184 (Wagenburg)","recycling_type":"glass","object_type":"container","description":"FALSE","website":"FALSE","name":"FALSE","hours":"FALSE","telephone":"FALSE"},"geometry":{"type":"Point","coordinates":[7.6654,52.0108]}},{"type":"Feature","properties":{"id":256,"address":"Brandhoveweg","location_desc":"Parkplatz Hallenbad","recycling_type":"glass","object_type":"container","description":"FALSE","website":"FALSE","name":"FALSE","hours":"FALSE","telephone":"FALSE"},"geometry":{"type":"Point","coordinates":[7.7151,51.9159]}},{"type":"Feature","properties":{"id":257,"address":"Kärntner Straße","location_desc":"Ecke Dieckstraße","recycling_type":"glass","object_type":"container","description":"FALSE","website":"FALSE","name":"FALSE","hours":"FALSE","telephone":"FALSE"},"geometry":{"type":"Point","coordinates":[7.6492,51.9709]}},{"type":"Feature","properties":{"id":258,"address":"Horstmarer Landweg","location_desc":"Nähe Kreuzung Horstmarer Landweg / Corrensstraße","recycling_type":"glass","object_type":"container","description":"FALSE","website":"FALSE","name":"FALSE","hours":"FALSE","telephone":"FALSE"},"geometry":{"type":"Point","coordinates":[7.5964,51.9714]}},{"type":"Feature","properties":{"id":259,"address":"Rudolf-Harbig-Weg","location_desc":"gegenüber Bentelerstraße","recycling_type":"glass","object_type":"container","description":"FALSE","website":"FALSE","name":"FALSE","hours":"FALSE","telephone":"FALSE"},"geometry":{"type":"Point","coordinates":[7.5947,51.9727]}},{"type":"Feature","properties":{"id":260,"address":"Kristiansandstraße","location_desc":"Hst. Rektoratsweg (Richtung Grevener Straße)","recycling_type":"individualWaste","object_type":"wasteBasket","description":"FALSE","website":"FALSE","name":"FALSE","hours":"all day, every day","telephone":"FALSE"},"geometry":{"type":"Point","coordinates":[7.6081,51.9974]}},{"type":"Feature","properties":{"id":261,"address":"Am Burloh","location_desc":"Hst. Am Burloh A","recycling_type":"individualWaste","object_type":"wasteBasket","description":"FALSE","website":"FALSE","name":"FALSE","hours":"all day, every day","telephone":"FALSE"},"geometry":{"type":"Point","coordinates":[7.6112,51.9935]}},{"type":"Feature","properties":{"id":262,"address":"Corrensstraße","location_desc":"Hst. Correnstraße (Richtung Rudolf-Harbig-Weg)","recycling_type":"individualWaste","object_type":"wasteBasket","description":"FALSE","website":"FALSE","name":"FALSE","hours":"all day, every day","telephone":"FALSE"},"geometry":{"type":"Point","coordinates":[7.5972,51.9709]}},{"type":"Feature","properties":{"id":263,"address":"Loerstraße","location_desc":"Hst. Raphaelsklinik (Richtung Klemensstraße)","recycling_type":"individualWaste","object_type":"wasteBasket","description":"FALSE","website":"FALSE","name":"FALSE","hours":"all day, every day","telephone":"FALSE"},"geometry":{"type":"Point","coordinates":[7.6296,51.9593]}},{"type":"Feature","properties":{"id":264,"address":"Von-Esmarch-Straße","location_desc":"Hst. Schreiberstraße (Ri. Busso-Peus-Straße)","recycling_type":"individualWaste","object_type":"wasteBasket","description":"FALSE","website":"FALSE","name":"FALSE","hours":"all day, every day","telephone":"FALSE"},"geometry":{"type":"Point","coordinates":[7.5951,51.9651]}},{"type":"Feature","properties":{"id":265,"address":"Enschedeweg","location_desc":"Hst. Michaelkirche (Richtung Potstiege)","recycling_type":"individualWaste","object_type":"wasteBasket","description":"FALSE","website":"FALSE","name":"FALSE","hours":"all day, every day","telephone":"FALSE"},"geometry":{"type":"Point","coordinates":[7.5789,51.9679]}},{"type":"Feature","properties":{"id":266,"address":"Rudolf-Steiner-Weg","location_desc":"Hst. Rudolf-Steiner-Weg (Schulbus)","recycling_type":"individualWaste","object_type":"wasteBasket","description":"FALSE","website":"FALSE","name":"FALSE","hours":"all day, every day","telephone":"FALSE"},"geometry":{"type":"Point","coordinates":[7.5801,51.9703]}},{"type":"Feature","properties":{"id":267,"address":"Schifffahrter Damm","location_desc":"Hst. Abzweig Mariendorf (stadtauswärts)","recycling_type":"individualWaste","object_type":"wasteBasket","description":"FALSE","website":"FALSE","name":"FALSE","hours":"all day, every day","telephone":"FALSE"},"geometry":{"type":"Point","coordinates":[7.6628,51.9873]}},{"type":"Feature","properties":{"id":268,"address":"Scharnhorststraße","location_desc":"Hst. Scharnhorststraße (Ri. Weseler Straße)","recycling_type":"individualWaste","object_type":"wasteBasket","description":"FALSE","website":"FALSE","name":"FALSE","hours":"all day, every day","telephone":"FALSE"},"geometry":{"type":"Point","coordinates":[7.619,51.955]}},{"type":"Feature","properties":{"id":269,"address":"Bohlweg","location_desc":"Hst. Hörstertor A (Ri. Gartenstraße)","recycling_type":"individualWaste","object_type":"wasteBasket","description":"FALSE","website":"FALSE","name":"FALSE","hours":"all day, every day","telephone":"FALSE"},"geometry":{"type":"Point","coordinates":[7.6346,51.9658]}},{"type":"Feature","properties":{"id":270,"address":"Michaelisplatz","location_desc":"Ecke Prinzipalmarkt","recycling_type":"individualWaste","object_type":"wasteBasket","description":"FALSE","website":"FALSE","name":"FALSE","hours":"all day, every day","telephone":"FALSE"},"geometry":{"type":"Point","coordinates":[7.6277,51.9618]}},{"type":"Feature","properties":{"id":271,"address":"Heisstraße","location_desc":"Ecke Sternstraße","recycling_type":"individualWaste","object_type":"wasteBasket","description":"FALSE","website":"FALSE","name":"FALSE","hours":"all day, every day","telephone":"FALSE"},"geometry":{"type":"Point","coordinates":[7.6446,51.9589]}},{"type":"Feature","properties":{"id":272,"address":"Rösnerstraße","location_desc":"Betriebsgelände","recycling_type":"individualWaste","object_type":"wasteBasket","description":"FALSE","website":"FALSE","name":"FALSE","hours":"all day, every day","telephone":"FALSE"},"geometry":{"type":"Point","coordinates":[7.6435,51.9402]}},{"type":"Feature","properties":{"id":273,"address":"Stubengasse","location_desc":"Mülltonne für Glutton","recycling_type":"individualWaste","object_type":"wasteBasket","description":"FALSE","website":"FALSE","name":"FALSE","hours":"all day, every day","telephone":"FALSE"},"geometry":{"type":"Point","coordinates":[7.6286,51.9605]}},{"type":"Feature","properties":{"id":274,"address":"Gescherweg","location_desc":"vor Jugendtreff","recycling_type":"individualWaste","object_type":"wasteBasket","description":"FALSE","website":"FALSE","name":"FALSE","hours":"all day, every day","telephone":"FALSE"},"geometry":{"type":"Point","coordinates":[7.5734,51.9764]}},{"type":"Feature","properties":{"id":275,"address":"Tilbecker Straße","location_desc":"Hst. Roxel Hallenbad A","recycling_type":"individualWaste","object_type":"wasteBasket","description":"FALSE","website":"FALSE","name":"FALSE","hours":"all day, every day","telephone":"FALSE"},"geometry":{"type":"Point","coordinates":[7.5275,51.9545]}},{"type":"Feature","properties":{"id":276,"address":"Paul-Gerhardt-Straße","location_desc":"Hst. Paul-Gerhardt-Straße (Ri. Dorffeldstraße)","recycling_type":"individualWaste","object_type":"wasteBasket","description":"FALSE","website":"FALSE","name":"FALSE","hours":"all day, every day","telephone":"FALSE"},"geometry":{"type":"Point","coordinates":[7.5351,51.9492]}},{"type":"Feature","properties":{"id":277,"address":"Langenkamp","location_desc":"Hst. Langenkamp (Ri. Osthofstraße)","recycling_type":"individualWaste","object_type":"wasteBasket","description":"FALSE","website":"FALSE","name":"FALSE","hours":"all day, every day","telephone":"FALSE"},"geometry":{"type":"Point","coordinates":[7.5252,51.9165]}},{"type":"Feature","properties":{"id":278,"address":"Heroldstraße","location_desc":"Hst. Ripenhorst (Richtung Weseler Straße)","recycling_type":"individualWaste","object_type":"wasteBasket","description":"FALSE","website":"FALSE","name":"FALSE","hours":"all day, every day","telephone":"FALSE"},"geometry":{"type":"Point","coordinates":[7.5734,51.921]}},{"type":"Feature","properties":{"id":279,"address":"Schlossplatz","location_desc":"Fußgängerampel / Ecke Überwasserstraße","recycling_type":"individualWaste","object_type":"wasteBasket","description":"FALSE","website":"FALSE","name":"FALSE","hours":"all day, every day","telephone":"FALSE"},"geometry":{"type":"Point","coordinates":[7.6178,51.9653]}},{"type":"Feature","properties":{"id":280,"address":"Orléans-Ring","location_desc":"Hst. P+R Coesfelder Kreuz C","recycling_type":"individualWaste","object_type":"wasteBasket","description":"FALSE","website":"FALSE","name":"FALSE","hours":"all day, every day","telephone":"FALSE"},"geometry":{"type":"Point","coordinates":[7.6019,51.9659]}},{"type":"Feature","properties":{"id":281,"address":"Mecklenbecker Straße","location_desc":"Hst. Bonhoefferstraße (Richtung Bischopinkstr.)","recycling_type":"individualWaste","object_type":"wasteBasket","description":"FALSE","website":"FALSE","name":"FALSE","hours":"all day, every day","telephone":"FALSE"},"geometry":{"type":"Point","coordinates":[7.6012,51.9455]}},{"type":"Feature","properties":{"id":282,"address":"Gerichtsstraße","location_desc":"Hst. Landgericht (Richtung Schlossplatz)","recycling_type":"individualWaste","object_type":"wasteBasket","description":"FALSE","website":"FALSE","name":"FALSE","hours":"all day, every day","telephone":"FALSE"},"geometry":{"type":"Point","coordinates":[7.6157,51.9618]}},{"type":"Feature","properties":{"id":283,"address":"Bergstraße","location_desc":"Ecke Schlaunstraße (vor Hs Nr. 14)","recycling_type":"individualWaste","object_type":"wasteBasket","description":"FALSE","website":"FALSE","name":"FALSE","hours":"all day, every day","telephone":"FALSE"},"geometry":{"type":"Point","coordinates":[7.6231,51.9661]}},{"type":"Feature","properties":{"id":284,"address":"Hammer Straße","location_desc":"St. Josefs-Kirchplatz","recycling_type":"individualWaste","object_type":"wasteBasket","description":"FALSE","website":"FALSE","name":"FALSE","hours":"all day, every day","telephone":"FALSE"},"geometry":{"type":"Point","coordinates":[7.6247,51.9497]}},{"type":"Feature","properties":{"id":285,"address":"Marktallee","location_desc":"Ecke Am Kalvarienberg","recycling_type":"individualWaste","object_type":"wasteBasket","description":"FALSE","website":"FALSE","name":"FALSE","hours":"all day, every day","telephone":"FALSE"},"geometry":{"type":"Point","coordinates":[7.6452,51.9042]}},{"type":"Feature","properties":{"id":286,"address":"Weseler Straße","location_desc":"Ecke Dondersring","recycling_type":"individualWaste","object_type":"wasteBasket","description":"FALSE","website":"FALSE","name":"FALSE","hours":"all day, every day","telephone":"FALSE"},"geometry":{"type":"Point","coordinates":[7.6171,51.9497]}},{"type":"Feature","properties":{"id":287,"address":"Am Kreativkai","location_desc":"PK 3 + 4 von 14","recycling_type":"individualWaste","object_type":"wasteBasket","description":"FALSE","website":"FALSE","name":"FALSE","hours":"all day, every day","telephone":"FALSE"},"geometry":{"type":"Point","coordinates":[7.6397,51.9518]}},{"type":"Feature","properties":{"id":288,"address":"Am Kreativkai","location_desc":"PK 5 + 6 von 14","recycling_type":"individualWaste","object_type":"wasteBasket","description":"FALSE","website":"FALSE","name":"FALSE","hours":"all day, every day","telephone":"FALSE"},"geometry":{"type":"Point","coordinates":[7.6405,51.952]}},{"type":"Feature","properties":{"id":289,"address":"Am Kreativkai","location_desc":"PK 7 + 8 von 14","recycling_type":"individualWaste","object_type":"wasteBasket","description":"FALSE","website":"FALSE","name":"FALSE","hours":"all day, every day","telephone":"FALSE"},"geometry":{"type":"Point","coordinates":[7.6415,51.952]}},{"type":"Feature","properties":{"id":290,"address":"Am Kreativkai","location_desc":"PK 9 + 10 von 14","recycling_type":"individualWaste","object_type":"wasteBasket","description":"FALSE","website":"FALSE","name":"FALSE","hours":"all day, every day","telephone":"FALSE"},"geometry":{"type":"Point","coordinates":[7.6424,51.9519]}},{"type":"Feature","properties":{"id":291,"address":"Am Kreativkai","location_desc":"PK 11 + 12 von 14","recycling_type":"individualWaste","object_type":"wasteBasket","description":"FALSE","website":"FALSE","name":"FALSE","hours":"all day, every day","telephone":"FALSE"},"geometry":{"type":"Point","coordinates":[7.6432,51.9518]}},{"type":"Feature","properties":{"id":292,"address":"Am Kreativkai","location_desc":"PK 13 + 14 von 14","recycling_type":"individualWaste","object_type":"wasteBasket","description":"FALSE","website":"FALSE","name":"FALSE","hours":"all day, every day","telephone":"FALSE"},"geometry":{"type":"Point","coordinates":[7.644,51.9517]}},{"type":"Feature","properties":{"id":293,"address":"Am Kreativkai","location_desc":"Ende Kreativkai","recycling_type":"individualWaste","object_type":"wasteBasket","description":"FALSE","website":"FALSE","name":"FALSE","hours":"all day, every day","telephone":"FALSE"},"geometry":{"type":"Point","coordinates":[7.6447,51.9517]}},{"type":"Feature","properties":{"id":294,"address":"Promenade","location_desc":"FALSE","recycling_type":"individualWaste","object_type":"wasteBasket","description":"FALSE","website":"FALSE","name":"FALSE","hours":"all day, every day","telephone":"FALSE"},"geometry":{"type":"Point","coordinates":[7.6187,51.958]}},{"type":"Feature","properties":{"id":295,"address":"Domplatz","location_desc":"in Gasse zur Lambertikirche","recycling_type":"individualWaste","object_type":"wasteBasket","description":"FALSE","website":"FALSE","name":"FALSE","hours":"all day, every day","telephone":"FALSE"},"geometry":{"type":"Point","coordinates":[7.6274,51.963]}},{"type":"Feature","properties":{"id":296,"address":"Promenade","location_desc":"FALSE","recycling_type":"individualWaste","object_type":"wasteBasket","description":"FALSE","website":"FALSE","name":"FALSE","hours":"all day, every day","telephone":"FALSE"},"geometry":{"type":"Point","coordinates":[7.6187,51.9579]}},{"type":"Feature","properties":{"id":297,"address":"Domplatz","location_desc":"Ecke Marktcafè","recycling_type":"individualWaste","object_type":"wasteBasket","description":"FALSE","website":"FALSE","name":"FALSE","hours":"all day, every day","telephone":"FALSE"},"geometry":{"type":"Point","coordinates":[7.6253,51.9621]}},{"type":"Feature","properties":{"id":298,"address":"Promenade","location_desc":"FALSE","recycling_type":"individualWaste","object_type":"wasteBasket","description":"FALSE","website":"FALSE","name":"FALSE","hours":"all day, every day","telephone":"FALSE"},"geometry":{"type":"Point","coordinates":[7.617,51.958]}},{"type":"Feature","properties":{"id":299,"address":"Promenade","location_desc":"FALSE","recycling_type":"individualWaste","object_type":"wasteBasket","description":"FALSE","website":"FALSE","name":"FALSE","hours":"all day, every day","telephone":"FALSE"},"geometry":{"type":"Point","coordinates":[7.6165,51.9586]}},{"type":"Feature","properties":{"id":300,"address":"Horsteberg","location_desc":"gegenüb. Dom","recycling_type":"individualWaste","object_type":"wasteBasket","description":"FALSE","website":"FALSE","name":"FALSE","hours":"all day, every day","telephone":"FALSE"},"geometry":{"type":"Point","coordinates":[7.6263,51.9634]}},{"type":"Feature","properties":{"id":301,"address":"Promenade","location_desc":"FALSE","recycling_type":"individualWaste","object_type":"wasteBasket","description":"FALSE","website":"FALSE","name":"FALSE","hours":"all day, every day","telephone":"FALSE"},"geometry":{"type":"Point","coordinates":[7.6155,51.9597]}},{"type":"Feature","properties":{"id":302,"address":"Promenade","location_desc":"FALSE","recycling_type":"individualWaste","object_type":"wasteBasket","description":"FALSE","website":"FALSE","name":"FALSE","hours":"all day, every day","telephone":"FALSE"},"geometry":{"type":"Point","coordinates":[7.6147,51.9603]}},{"type":"Feature","properties":{"id":303,"address":"Geisbergweg","location_desc":"vor Post","recycling_type":"individualWaste","object_type":"wasteBasket","description":"FALSE","website":"FALSE","name":"FALSE","hours":"all day, every day","telephone":"FALSE"},"geometry":{"type":"Point","coordinates":[7.6259,51.9616]}},{"type":"Feature","properties":{"id":304,"address":"Idenbrockplatz","location_desc":"vor Hs Nr. 26 (Arbeitsagentur)","recycling_type":"individualWaste","object_type":"wasteBasket","description":"FALSE","website":"FALSE","name":"FALSE","hours":"all day, every day","telephone":"FALSE"},"geometry":{"type":"Point","coordinates":[7.6026,51.9949]}},{"type":"Feature","properties":{"id":305,"address":"Salzstraße","location_desc":"vor Karstadt Ecke Heinrich-Brüning-Str.","recycling_type":"individualWaste","object_type":"wasteBasket","description":"FALSE","website":"FALSE","name":"FALSE","hours":"all day, every day","telephone":"FALSE"},"geometry":{"type":"Point","coordinates":[7.6305,51.9619]}},{"type":"Feature","properties":{"id":306,"address":"Bült","location_desc":"Hst. Bült B","recycling_type":"individualWaste","object_type":"wasteBasket","description":"FALSE","website":"FALSE","name":"FALSE","hours":"all day, every day","telephone":"FALSE"},"geometry":{"type":"Point","coordinates":[7.6305,51.9641]}},{"type":"Feature","properties":{"id":307,"address":"Bült","location_desc":"Hst. Bült A","recycling_type":"individualWaste","object_type":"wasteBasket","description":"FALSE","website":"FALSE","name":"FALSE","hours":"all day, every day","telephone":"FALSE"},"geometry":{"type":"Point","coordinates":[7.6304,51.9639]}},{"type":"Feature","properties":{"id":308,"address":"Dorbaumstraße","location_desc":"Hst. Drei Eichen (Richtung Dorbaum)","recycling_type":"individualWaste","object_type":"wasteBasket","description":"FALSE","website":"FALSE","name":"FALSE","hours":"all day, every day","telephone":"FALSE"},"geometry":{"type":"Point","coordinates":[7.7109,51.9966]}},{"type":"Feature","properties":{"id":309,"address":"Dorbaumstraße","location_desc":"Hst. Drei Eichen (Richtung Middelfeld)","recycling_type":"individualWaste","object_type":"wasteBasket","description":"FALSE","website":"FALSE","name":"FALSE","hours":"all day, every day","telephone":"FALSE"},"geometry":{"type":"Point","coordinates":[7.7107,51.996]}},{"type":"Feature","properties":{"id":310,"address":"Immelmannstraße","location_desc":"Hst. In der Stroth (Richtung Middelfeld)","recycling_type":"individualWaste","object_type":"wasteBasket","description":"FALSE","website":"FALSE","name":"FALSE","hours":"all day, every day","telephone":"FALSE"},"geometry":{"type":"Point","coordinates":[7.7144,51.9989]}},{"type":"Feature","properties":{"id":311,"address":"Dorbaumstraße","location_desc":"Hst. Handorf Fachklinik Hornheide (Ri. Am Kerkamp)","recycling_type":"individualWaste","object_type":"wasteBasket","description":"FALSE","website":"FALSE","name":"FALSE","hours":"all day, every day","telephone":"FALSE"},"geometry":{"type":"Point","coordinates":[7.7071,52.0108]}},{"type":"Feature","properties":{"id":312,"address":"Dorbaumstraße","location_desc":"Hst. Kirschgarten (Ri. Handorf Mitte)","recycling_type":"individualWaste","object_type":"wasteBasket","description":"FALSE","website":"FALSE","name":"FALSE","hours":"all day, every day","telephone":"FALSE"},"geometry":{"type":"Point","coordinates":[7.6998,51.9895]}},{"type":"Feature","properties":{"id":313,"address":"Lauheider Straße","location_desc":"Hst. Waldfriehof Lauheide","recycling_type":"individualWaste","object_type":"wasteBasket","description":"FALSE","website":"FALSE","name":"FALSE","hours":"all day, every day","telephone":"FALSE"},"geometry":{"type":"Point","coordinates":[7.7507,52.0003]}},{"type":"Feature","properties":{"id":314,"address":"Kristiansandstraße","location_desc":"Hst. Kinderhaus Schulzentrum C","recycling_type":"individualWaste","object_type":"wasteBasket","description":"FALSE","website":"FALSE","name":"FALSE","hours":"all day, every day","telephone":"FALSE"},"geometry":{"type":"Point","coordinates":[7.6024,51.9971]}},{"type":"Feature","properties":{"id":315,"address":"Kristiansandstraße","location_desc":"Ecke Idenbrockplatz","recycling_type":"individualWaste","object_type":"wasteBasket","description":"FALSE","website":"FALSE","name":"FALSE","hours":"all day, every day","telephone":"FALSE"},"geometry":{"type":"Point","coordinates":[7.6039,51.9969]}},{"type":"Feature","properties":{"id":316,"address":"Düesbergweg","location_desc":"Hst. Clemenshospital","recycling_type":"individualWaste","object_type":"wasteBasket","description":"FALSE","website":"FALSE","name":"FALSE","hours":"all day, every day","telephone":"FALSE"},